[{"Nom_Gare":"Aix-en-Provence TGV","INSEE_REG":84,"NOM_REG":"Auvergne-Rh\u00f4ne-Alpes","INSEE_DEP":1,"NOM_DEP":"Ain","Latitude":46.097,"Longitude":4.847,"code_postal":13592,"service_wifi":"Oui","traffic":"high","city":"Chaneins","id_region":"admin:fr:13001"},{"Nom_Gare":"Bourg-en-Bresse","INSEE_REG":84,"NOM_REG":"Auvergne-Rh\u00f4ne-Alpes","INSEE_DEP":1,"NOM_DEP":"Ain","Latitude":46.196,"Longitude":5.275,"code_postal":1000,"service_wifi":"Oui","traffic":"high","city":"Bourg-en-Bresse","id_region":"admin:fr:01053"},{"Nom_Gare":"Cluses","INSEE_REG":84,"NOM_REG":"Auvergne-Rh\u00f4ne-Alpes","INSEE_DEP":1,"NOM_DEP":"Ain","Latitude":46.171,"Longitude":5.577,"code_postal":74300,"service_wifi":"Non","traffic":"high","city":"Montr\u00e9al-la-Cluse","id_region":"admin:fr:74081"},{"Nom_Gare":"Antibes","INSEE_REG":93,"NOM_REG":"Provence-Alpes-C\u00f4te d'Azur","INSEE_DEP":6,"NOM_DEP":"Alpes-Maritimes","Latitude":43.584,"Longitude":7.108,"code_postal":6600,"service_wifi":"Oui","traffic":"high","city":"Antibes","id_region":"admin:fr:06004"},{"Nom_Gare":"Cannes","INSEE_REG":93,"NOM_REG":"Provence-Alpes-C\u00f4te d'Azur","INSEE_DEP":6,"NOM_DEP":"Alpes-Maritimes","Latitude":43.653,"Longitude":7.146,"code_postal":6400,"service_wifi":"Oui","traffic":"high","city":"Cagnes-sur-Mer","id_region":"admin:fr:06029"},{"Nom_Gare":"Menton","INSEE_REG":93,"NOM_REG":"Provence-Alpes-C\u00f4te d'Azur","INSEE_DEP":6,"NOM_DEP":"Alpes-Maritimes","Latitude":43.774,"Longitude":7.489,"code_postal":6500,"service_wifi":"Non","traffic":"high","city":"Menton","id_region":"admin:fr:06083"},{"Nom_Gare":"Nice-Ville","INSEE_REG":93,"NOM_REG":"Provence-Alpes-C\u00f4te d'Azur","INSEE_DEP":6,"NOM_DEP":"Alpes-Maritimes","Latitude":43.697,"Longitude":7.272,"code_postal":6008,"service_wifi":"Oui","traffic":"high","city":"Nice","id_region":"admin:fr:06088"},{"Nom_Gare":"Charleville-M\u00e9zi\u00e8res","INSEE_REG":44,"NOM_REG":"Grand Est","INSEE_DEP":8,"NOM_DEP":"Ardennes","Latitude":49.771,"Longitude":4.72,"code_postal":8000,"service_wifi":"Oui","traffic":"high","city":"Charleville-M\u00e9zi\u00e8res","id_region":"admin:fr:08105"},{"Nom_Gare":"Rethel","INSEE_REG":44,"NOM_REG":"Grand Est","INSEE_DEP":8,"NOM_DEP":"Ardennes","Latitude":49.5,"Longitude":4.402,"code_postal":8300,"service_wifi":"Non","traffic":"high","city":"Rethel","id_region":"admin:fr:08362"},{"Nom_Gare":"Sedan","INSEE_REG":44,"NOM_REG":"Grand Est","INSEE_DEP":8,"NOM_DEP":"Ardennes","Latitude":49.705,"Longitude":4.943,"code_postal":8200,"service_wifi":"Non","traffic":"high","city":"Sedan","id_region":"admin:fr:08409"},{"Nom_Gare":"Carcassonne","INSEE_REG":76,"NOM_REG":"Occitanie","INSEE_DEP":11,"NOM_DEP":"Aude","Latitude":43.179,"Longitude":2.405,"code_postal":11000,"service_wifi":"Oui","traffic":"high","city":"Carcassonne","id_region":"admin:fr:11069"},{"Nom_Gare":"Narbonne","INSEE_REG":76,"NOM_REG":"Occitanie","INSEE_DEP":11,"NOM_DEP":"Aude","Latitude":43.182,"Longitude":3.026,"code_postal":11100,"service_wifi":"Oui","traffic":"high","city":"Narbonne","id_region":"admin:fr:11262"},{"Nom_Gare":"Arles","INSEE_REG":93,"NOM_REG":"Provence-Alpes-C\u00f4te d'Azur","INSEE_DEP":13,"NOM_DEP":"Bouches-du-Rh\u00f4ne","Latitude":43.641,"Longitude":5.071,"code_postal":13200,"service_wifi":"Non","traffic":"high","city":"Salon-de-Provence","id_region":"admin:fr:13004"},{"Nom_Gare":"Avignon TGV","INSEE_REG":93,"NOM_REG":"Provence-Alpes-C\u00f4te d'Azur","INSEE_DEP":13,"NOM_DEP":"Bouches-du-Rh\u00f4ne","Latitude":43.657,"Longitude":5.095,"code_postal":84000,"service_wifi":"Oui","traffic":"high","city":"Salon-de-Provence","id_region":"admin:fr:84007"},{"Nom_Gare":"Miramas","INSEE_REG":93,"NOM_REG":"Provence-Alpes-C\u00f4te d'Azur","INSEE_DEP":13,"NOM_DEP":"Bouches-du-Rh\u00f4ne","Latitude":43.643,"Longitude":5.021,"code_postal":13140,"service_wifi":"Non","traffic":"high","city":"Salon-de-Provence","id_region":"admin:fr:13063"},{"Nom_Gare":"Angoul\u00eame","INSEE_REG":75,"NOM_REG":"Nouvelle-Aquitaine","INSEE_DEP":16,"NOM_DEP":"Charente","Latitude":45.655,"Longitude":0.151,"code_postal":16000,"service_wifi":"Oui","traffic":"high","city":"Angoul\u00eame","id_region":"admin:fr:16015"},{"Nom_Gare":"Champagne-Ardenne TGV","INSEE_REG":75,"NOM_REG":"Nouvelle-Aquitaine","INSEE_DEP":16,"NOM_DEP":"Charente","Latitude":45.62,"Longitude":-0.222,"code_postal":51430,"service_wifi":"Oui","traffic":"high","city":"Segonzac","id_region":"admin:fr:51058"},{"Nom_Gare":"Surg\u00e8res","INSEE_REG":75,"NOM_REG":"Nouvelle-Aquitaine","INSEE_DEP":17,"NOM_DEP":"Charente-Maritime","Latitude":46.114,"Longitude":-0.741,"code_postal":17700,"service_wifi":"Non","traffic":"high","city":"Surg\u00e8res","id_region":"admin:fr:17434"},{"Nom_Gare":"Beaune","INSEE_REG":27,"NOM_REG":"Bourgogne-Franche-Comt\u00e9","INSEE_DEP":21,"NOM_DEP":"C\u00f4te-d'Or","Latitude":47.104,"Longitude":4.67,"code_postal":21200,"service_wifi":"Non","traffic":"high","city":"Bligny-sur-Ouche","id_region":"admin:fr:21054"},{"Nom_Gare":"Montbard","INSEE_REG":27,"NOM_REG":"Bourgogne-Franche-Comt\u00e9","INSEE_DEP":21,"NOM_DEP":"C\u00f4te-d'Or","Latitude":47.837,"Longitude":4.364,"code_postal":21500,"service_wifi":"Non","traffic":"high","city":"Laignes","id_region":"admin:fr:21425"},{"Nom_Gare":"Guingamp","INSEE_REG":53,"NOM_REG":"Bretagne","INSEE_DEP":22,"NOM_DEP":"C\u00f4tes-d'Armor","Latitude":48.563,"Longitude":-3.155,"code_postal":22200,"service_wifi":"Oui","traffic":"high","city":"Guingamp","id_region":"admin:fr:22070"},{"Nom_Gare":"Lamballe","INSEE_REG":53,"NOM_REG":"Bretagne","INSEE_DEP":22,"NOM_DEP":"C\u00f4tes-d'Armor","Latitude":48.439,"Longitude":-2.538,"code_postal":22400,"service_wifi":"Non","traffic":"high","city":"Lamballe-Armor","id_region":"admin:fr:22093"},{"Nom_Gare":"Lannion","INSEE_REG":53,"NOM_REG":"Bretagne","INSEE_DEP":22,"NOM_DEP":"C\u00f4tes-d'Armor","Latitude":48.744,"Longitude":-3.472,"code_postal":22300,"service_wifi":"Non","traffic":"high","city":"Lannion","id_region":"admin:fr:22113"},{"Nom_Gare":"Saint-Brieuc","INSEE_REG":53,"NOM_REG":"Bretagne","INSEE_DEP":22,"NOM_DEP":"C\u00f4tes-d'Armor","Latitude":48.503,"Longitude":-2.763,"code_postal":22000,"service_wifi":"Non","traffic":"high","city":"Saint-Brieuc","id_region":"admin:fr:22278"},{"Nom_Gare":"Frasne","INSEE_REG":27,"NOM_REG":"Bourgogne-Franche-Comt\u00e9","INSEE_DEP":25,"NOM_DEP":"Doubs","Latitude":46.856,"Longitude":6.149,"code_postal":25560,"service_wifi":"Non","traffic":"high","city":"Frasne","id_region":"admin:fr:25259"},{"Nom_Gare":"Mont\u00e9limar","INSEE_REG":84,"NOM_REG":"Auvergne-Rh\u00f4ne-Alpes","INSEE_DEP":26,"NOM_DEP":"Dr\u00f4me","Latitude":44.546,"Longitude":4.744,"code_postal":26200,"service_wifi":"Oui","traffic":"high","city":"Mont\u00e9limar","id_region":"admin:fr:26198"},{"Nom_Gare":"Brest","INSEE_REG":53,"NOM_REG":"Bretagne","INSEE_DEP":29,"NOM_DEP":"Finist\u00e8re","Latitude":48.391,"Longitude":-4.502,"code_postal":29200,"service_wifi":"Oui","traffic":"high","city":"Brest","id_region":"admin:fr:29019"},{"Nom_Gare":"Landerneau","INSEE_REG":53,"NOM_REG":"Bretagne","INSEE_DEP":29,"NOM_DEP":"Finist\u00e8re","Latitude":48.45,"Longitude":-4.253,"code_postal":29800,"service_wifi":"Non","traffic":"high","city":"Landerneau","id_region":"admin:fr:29103"},{"Nom_Gare":"Quimper","INSEE_REG":53,"NOM_REG":"Bretagne","INSEE_DEP":29,"NOM_DEP":"Finist\u00e8re","Latitude":48.014,"Longitude":-4.094,"code_postal":29000,"service_wifi":"Oui","traffic":"high","city":"Quimper","id_region":"admin:fr:29232"},{"Nom_Gare":"Quimperl\u00e9","INSEE_REG":53,"NOM_REG":"Bretagne","INSEE_DEP":29,"NOM_DEP":"Finist\u00e8re","Latitude":47.884,"Longitude":-3.548,"code_postal":29300,"service_wifi":"Non","traffic":"high","city":"Quimperl\u00e9","id_region":"admin:fr:29233"},{"Nom_Gare":"Rosporden","INSEE_REG":53,"NOM_REG":"Bretagne","INSEE_DEP":29,"NOM_DEP":"Finist\u00e8re","Latitude":47.989,"Longitude":-3.791,"code_postal":29140,"service_wifi":"Non","traffic":"high","city":"Rosporden","id_region":"admin:fr:29241"},{"Nom_Gare":"Morlaix","INSEE_REG":53,"NOM_REG":"Bretagne","INSEE_DEP":29,"NOM_DEP":"Finist\u00e8re","Latitude":48.579,"Longitude":-3.833,"code_postal":29600,"service_wifi":"Oui","traffic":"high","city":"Morlaix","id_region":"admin:fr:29151"},{"Nom_Gare":"N\u00eemes","INSEE_REG":76,"NOM_REG":"Occitanie","INSEE_DEP":30,"NOM_DEP":"Gard","Latitude":43.832,"Longitude":4.386,"code_postal":30000,"service_wifi":"Oui","traffic":"high","city":"N\u00eemes","id_region":"admin:fr:30189"},{"Nom_Gare":"Meuse TGV","INSEE_REG":76,"NOM_REG":"Occitanie","INSEE_DEP":31,"NOM_DEP":"Haute-Garonne","Latitude":43.583,"Longitude":1.484,"code_postal":55220,"service_wifi":"Oui","traffic":"high","city":"Toulouse","id_region":"admin:fr:55254"},{"Nom_Gare":"Arcachon","INSEE_REG":75,"NOM_REG":"Nouvelle-Aquitaine","INSEE_DEP":33,"NOM_DEP":"Gironde","Latitude":44.662,"Longitude":-1.17,"code_postal":33120,"service_wifi":"Non","traffic":"high","city":"Arcachon","id_region":"admin:fr:33009"},{"Nom_Gare":"Libourne","INSEE_REG":75,"NOM_REG":"Nouvelle-Aquitaine","INSEE_DEP":33,"NOM_DEP":"Gironde","Latitude":44.896,"Longitude":-0.24,"code_postal":33500,"service_wifi":"Oui","traffic":"high","city":"Libourne","id_region":"admin:fr:33243"},{"Nom_Gare":"La Teste","INSEE_REG":75,"NOM_REG":"Nouvelle-Aquitaine","INSEE_DEP":33,"NOM_DEP":"Gironde","Latitude":44.633,"Longitude":-1.133,"code_postal":33260,"service_wifi":"Non","traffic":"high","city":"La Teste-de-Buch","id_region":"admin:fr:33529"},{"Nom_Gare":"Agde","INSEE_REG":76,"NOM_REG":"Occitanie","INSEE_DEP":34,"NOM_DEP":"H\u00e9rault","Latitude":43.318,"Longitude":3.483,"code_postal":34300,"service_wifi":"Oui","traffic":"high","city":"Agde","id_region":"admin:fr:34003"},{"Nom_Gare":"B\u00e9ziers","INSEE_REG":76,"NOM_REG":"Occitanie","INSEE_DEP":34,"NOM_DEP":"H\u00e9rault","Latitude":43.42,"Longitude":3.236,"code_postal":34500,"service_wifi":"Oui","traffic":"high","city":"Lieuran-l\u00e8s-B\u00e9ziers","id_region":"admin:fr:34032"},{"Nom_Gare":"S\u00e8te","INSEE_REG":76,"NOM_REG":"Occitanie","INSEE_DEP":34,"NOM_DEP":"H\u00e9rault","Latitude":43.409,"Longitude":3.698,"code_postal":34200,"service_wifi":"Oui","traffic":"high","city":"S\u00e8te","id_region":"admin:fr:34301"},{"Nom_Gare":"Dol-de-Bretagne","INSEE_REG":53,"NOM_REG":"Bretagne","INSEE_DEP":35,"NOM_DEP":"Ille-et-Vilaine","Latitude":48.551,"Longitude":-1.738,"code_postal":35120,"service_wifi":"Non","traffic":"high","city":"Dol-de-Bretagne","id_region":"admin:fr:35095"},{"Nom_Gare":"Redon","INSEE_REG":53,"NOM_REG":"Bretagne","INSEE_DEP":35,"NOM_DEP":"Ille-et-Vilaine","Latitude":47.652,"Longitude":-2.083,"code_postal":35600,"service_wifi":"Non","traffic":"high","city":"Redon","id_region":"admin:fr:35236"},{"Nom_Gare":"Rennes","INSEE_REG":53,"NOM_REG":"Bretagne","INSEE_DEP":35,"NOM_DEP":"Ille-et-Vilaine","Latitude":48.11,"Longitude":-1.684,"code_postal":35005,"service_wifi":"Oui","traffic":"high","city":"Rennes","id_region":"admin:fr:35238"},{"Nom_Gare":"Saint-Malo","INSEE_REG":53,"NOM_REG":"Bretagne","INSEE_DEP":35,"NOM_DEP":"Ille-et-Vilaine","Latitude":48.657,"Longitude":-1.974,"code_postal":35400,"service_wifi":"Oui","traffic":"high","city":"Saint-Malo","id_region":"admin:fr:35288"},{"Nom_Gare":"Vitr\u00e9","INSEE_REG":53,"NOM_REG":"Bretagne","INSEE_DEP":35,"NOM_DEP":"Ille-et-Vilaine","Latitude":48.131,"Longitude":-1.218,"code_postal":35500,"service_wifi":"Non","traffic":"high","city":"Vitr\u00e9","id_region":"admin:fr:35360"},{"Nom_Gare":"Lorraine TGV","INSEE_REG":24,"NOM_REG":"Centre-Val de Loire","INSEE_DEP":37,"NOM_DEP":"Indre-et-Loire","Latitude":47.381,"Longitude":0.71,"code_postal":57420,"service_wifi":"Oui","traffic":"high","city":"Tours","id_region":"admin:fr:57422"},{"Nom_Gare":"Saint-Pierre-des-Corps","INSEE_REG":24,"NOM_REG":"Centre-Val de Loire","INSEE_DEP":37,"NOM_DEP":"Indre-et-Loire","Latitude":47.386,"Longitude":0.761,"code_postal":37700,"service_wifi":"Oui","traffic":"high","city":"La Ville-aux-Dames","id_region":"admin:fr:37233"},{"Nom_Gare":"Tours","INSEE_REG":24,"NOM_REG":"Centre-Val de Loire","INSEE_DEP":37,"NOM_DEP":"Indre-et-Loire","Latitude":47.402,"Longitude":0.696,"code_postal":37000,"service_wifi":"Oui","traffic":"high","city":"Tours","id_region":"admin:fr:37261"},{"Nom_Gare":"Grenoble","INSEE_REG":84,"NOM_REG":"Auvergne-Rh\u00f4ne-Alpes","INSEE_DEP":38,"NOM_DEP":"Is\u00e8re","Latitude":45.177,"Longitude":5.741,"code_postal":38000,"service_wifi":"Oui","traffic":"high","city":"Grenoble","id_region":"admin:fr:38185"},{"Nom_Gare":"Grenoble","INSEE_REG":84,"NOM_REG":"Auvergne-Rh\u00f4ne-Alpes","INSEE_DEP":38,"NOM_DEP":"Is\u00e8re","Latitude":45.177,"Longitude":5.741,"code_postal":38000,"service_wifi":"Oui","traffic":"high","city":"Grenoble","id_region":"admin:fr:38185"},{"Nom_Gare":"Mouchard","INSEE_REG":27,"NOM_REG":"Bourgogne-Franche-Comt\u00e9","INSEE_DEP":39,"NOM_DEP":"Jura","Latitude":46.978,"Longitude":5.792,"code_postal":39330,"service_wifi":"Non","traffic":"high","city":"Mouchard","id_region":"admin:fr:39370"},{"Nom_Gare":"Dax","INSEE_REG":75,"NOM_REG":"Nouvelle-Aquitaine","INSEE_DEP":40,"NOM_DEP":"Landes","Latitude":43.709,"Longitude":-1.068,"code_postal":40100,"service_wifi":"Oui","traffic":"high","city":"Dax","id_region":"admin:fr:40088"},{"Nom_Gare":"Ancenis","INSEE_REG":52,"NOM_REG":"Pays de la Loire","INSEE_DEP":44,"NOM_DEP":"Loire-Atlantique","Latitude":47.366,"Longitude":-1.184,"code_postal":44150,"service_wifi":"Non","traffic":"high","city":"Ancenis-Saint-G\u00e9r\u00e9on","id_region":"admin:fr:44003"},{"Nom_Gare":"La Baule-Escoublac","INSEE_REG":52,"NOM_REG":"Pays de la Loire","INSEE_DEP":44,"NOM_DEP":"Loire-Atlantique","Latitude":47.285,"Longitude":-2.371,"code_postal":44500,"service_wifi":"Oui","traffic":"high","city":"La Baule-Escoublac","id_region":"admin:fr:44055"},{"Nom_Gare":"Le Croisic","INSEE_REG":52,"NOM_REG":"Pays de la Loire","INSEE_DEP":44,"NOM_DEP":"Loire-Atlantique","Latitude":47.287,"Longitude":-2.51,"code_postal":44490,"service_wifi":"Non","traffic":"high","city":"Le Croisic","id_region":"admin:fr:44049"},{"Nom_Gare":"Nantes","INSEE_REG":52,"NOM_REG":"Pays de la Loire","INSEE_DEP":44,"NOM_DEP":"Loire-Atlantique","Latitude":47.259,"Longitude":-1.529,"code_postal":44041,"service_wifi":"Oui","traffic":"high","city":"Nantes","id_region":"admin:fr:44109"},{"Nom_Gare":"Pornichet","INSEE_REG":52,"NOM_REG":"Pays de la Loire","INSEE_DEP":44,"NOM_DEP":"Loire-Atlantique","Latitude":47.252,"Longitude":-2.314,"code_postal":44380,"service_wifi":"Non","traffic":"high","city":"Pornichet","id_region":"admin:fr:44132"},{"Nom_Gare":"Le Pouliguen","INSEE_REG":52,"NOM_REG":"Pays de la Loire","INSEE_DEP":44,"NOM_DEP":"Loire-Atlantique","Latitude":47.277,"Longitude":-2.439,"code_postal":44510,"service_wifi":"Non","traffic":"high","city":"Le Pouliguen","id_region":"admin:fr:44135"},{"Nom_Gare":"Saint-Nazaire","INSEE_REG":52,"NOM_REG":"Pays de la Loire","INSEE_DEP":44,"NOM_DEP":"Loire-Atlantique","Latitude":47.299,"Longitude":-2.184,"code_postal":44600,"service_wifi":"Oui","traffic":"high","city":"Saint-Nazaire","id_region":"admin:fr:44184"},{"Nom_Gare":"Agen","INSEE_REG":75,"NOM_REG":"Nouvelle-Aquitaine","INSEE_DEP":47,"NOM_DEP":"Lot-et-Garonne","Latitude":44.206,"Longitude":0.618,"code_postal":47000,"service_wifi":"Oui","traffic":"high","city":"Agen","id_region":"admin:fr:47001"},{"Nom_Gare":"Saumur","INSEE_REG":52,"NOM_REG":"Pays de la Loire","INSEE_DEP":49,"NOM_DEP":"Maine-et-Loire","Latitude":47.263,"Longitude":-0.073,"code_postal":49400,"service_wifi":"Non","traffic":"high","city":"Saumur","id_region":"admin:fr:49328"},{"Nom_Gare":"Ch\u00e2lons-en-Champagne","INSEE_REG":44,"NOM_REG":"Grand Est","INSEE_DEP":51,"NOM_DEP":"Marne","Latitude":48.956,"Longitude":4.362,"code_postal":51000,"service_wifi":"Non","traffic":"high","city":"Montauban-Ville-Bourbon","id_region":"admin:fr:51108"},{"Nom_Gare":"Reims","INSEE_REG":44,"NOM_REG":"Grand Est","INSEE_DEP":51,"NOM_DEP":"Marne","Latitude":49.245,"Longitude":4.041,"code_postal":51100,"service_wifi":"Oui","traffic":"high","city":"Reims","id_region":"admin:fr:51454"},{"Nom_Gare":"Vitry-le-Fran\u00e7ois","INSEE_REG":44,"NOM_REG":"Grand Est","INSEE_DEP":51,"NOM_DEP":"Marne","Latitude":48.73,"Longitude":4.597,"code_postal":51300,"service_wifi":"Non","traffic":"high","city":"Vitry-le-Fran\u00e7ois","id_region":"admin:fr:51649"},{"Nom_Gare":"Laval","INSEE_REG":52,"NOM_REG":"Pays de la Loire","INSEE_DEP":53,"NOM_DEP":"Mayenne","Latitude":48.077,"Longitude":-0.76,"code_postal":53000,"service_wifi":"Non","traffic":"high","city":"Laval","id_region":"admin:fr:53130"},{"Nom_Gare":"Lun\u00e9ville","INSEE_REG":44,"NOM_REG":"Grand Est","INSEE_DEP":54,"NOM_DEP":"Meurthe-et-Moselle","Latitude":48.585,"Longitude":6.483,"code_postal":54300,"service_wifi":"Non","traffic":"high","city":"Lun\u00e9ville","id_region":"admin:fr:54329"},{"Nom_Gare":"Bar-le-Duc","INSEE_REG":44,"NOM_REG":"Grand Est","INSEE_DEP":55,"NOM_DEP":"Meuse","Latitude":48.756,"Longitude":5.194,"code_postal":55000,"service_wifi":"Non","traffic":"high","city":"Bar-le-Duc","id_region":"admin:fr:55029"},{"Nom_Gare":"Auray","INSEE_REG":53,"NOM_REG":"Bretagne","INSEE_DEP":56,"NOM_DEP":"Morbihan","Latitude":47.663,"Longitude":-2.988,"code_postal":56400,"service_wifi":"Oui","traffic":"high","city":"Auray","id_region":"admin:fr:56007"},{"Nom_Gare":"Lorient","INSEE_REG":53,"NOM_REG":"Bretagne","INSEE_DEP":56,"NOM_DEP":"Morbihan","Latitude":47.759,"Longitude":-3.384,"code_postal":56100,"service_wifi":"Oui","traffic":"high","city":"Lorient","id_region":"admin:fr:56121"},{"Nom_Gare":"Vannes","INSEE_REG":53,"NOM_REG":"Bretagne","INSEE_DEP":56,"NOM_DEP":"Morbihan","Latitude":47.636,"Longitude":-2.773,"code_postal":56000,"service_wifi":"Oui","traffic":"high","city":"Vannes","id_region":"admin:fr:56260"},{"Nom_Gare":"Forbach","INSEE_REG":44,"NOM_REG":"Grand Est","INSEE_DEP":57,"NOM_DEP":"Moselle","Latitude":49.18,"Longitude":6.895,"code_postal":57600,"service_wifi":"Non","traffic":"high","city":"Forbach","id_region":"admin:fr:57227"},{"Nom_Gare":"Sarrebourg","INSEE_REG":44,"NOM_REG":"Grand Est","INSEE_DEP":57,"NOM_DEP":"Moselle","Latitude":48.735,"Longitude":7.052,"code_postal":57400,"service_wifi":"Non","traffic":"high","city":"Sarrebourg","id_region":"admin:fr:57630"},{"Nom_Gare":"Thionville","INSEE_REG":44,"NOM_REG":"Grand Est","INSEE_DEP":57,"NOM_DEP":"Moselle","Latitude":49.362,"Longitude":6.144,"code_postal":57100,"service_wifi":"Oui","traffic":"high","city":"Thionville","id_region":"admin:fr:57672"},{"Nom_Gare":"Croix - Wasquehal","INSEE_REG":32,"NOM_REG":"Hauts-de-France","INSEE_DEP":59,"NOM_DEP":"Nord","Latitude":50.678,"Longitude":3.135,"code_postal":59170,"service_wifi":"Non","traffic":"low","city":"Wasquehal","id_region":"admin:fr:59646"},{"Nom_Gare":"Douai","INSEE_REG":32,"NOM_REG":"Hauts-de-France","INSEE_DEP":59,"NOM_DEP":"Nord","Latitude":50.39,"Longitude":3.09,"code_postal":59500,"service_wifi":"Oui","traffic":"high","city":"Douai","id_region":"admin:fr:59178"},{"Nom_Gare":"Dunkerque","INSEE_REG":32,"NOM_REG":"Hauts-de-France","INSEE_DEP":59,"NOM_DEP":"Nord","Latitude":51.046,"Longitude":2.389,"code_postal":59140,"service_wifi":"Oui","traffic":"high","city":"Dunkerque","id_region":"admin:fr:59183"},{"Nom_Gare":"Hazebrouck","INSEE_REG":32,"NOM_REG":"Hauts-de-France","INSEE_DEP":59,"NOM_DEP":"Nord","Latitude":50.738,"Longitude":2.726,"code_postal":59190,"service_wifi":"Non","traffic":"high","city":"Bailleul","id_region":"admin:fr:59295"},{"Nom_Gare":"Roubaix","INSEE_REG":32,"NOM_REG":"Hauts-de-France","INSEE_DEP":59,"NOM_DEP":"Nord","Latitude":50.701,"Longitude":3.17,"code_postal":59100,"service_wifi":"Non","traffic":"high","city":"Roubaix","id_region":"admin:fr:59512"},{"Nom_Gare":"Tourcoing","INSEE_REG":32,"NOM_REG":"Hauts-de-France","INSEE_DEP":59,"NOM_DEP":"Nord","Latitude":50.718,"Longitude":3.141,"code_postal":59200,"service_wifi":"Non","traffic":"high","city":"Tourcoing","id_region":"admin:fr:59599"},{"Nom_Gare":"Valenciennes","INSEE_REG":32,"NOM_REG":"Hauts-de-France","INSEE_DEP":59,"NOM_DEP":"Nord","Latitude":50.342,"Longitude":3.517,"code_postal":59300,"service_wifi":"Oui","traffic":"high","city":"Valenciennes","id_region":"admin:fr:59606"},{"Nom_Gare":"Arras","INSEE_REG":32,"NOM_REG":"Hauts-de-France","INSEE_DEP":62,"NOM_DEP":"Pas-de-Calais","Latitude":50.29,"Longitude":2.778,"code_postal":62000,"service_wifi":"Oui","traffic":"high","city":"Arras","id_region":"admin:fr:62041"},{"Nom_Gare":"B\u00e9thune","INSEE_REG":32,"NOM_REG":"Hauts-de-France","INSEE_DEP":62,"NOM_DEP":"Pas-de-Calais","Latitude":50.517,"Longitude":2.636,"code_postal":62400,"service_wifi":"Non","traffic":"high","city":"B\u00e9thune","id_region":"admin:fr:62119"},{"Nom_Gare":"Calais - Fr\u00e9thun","INSEE_REG":32,"NOM_REG":"Hauts-de-France","INSEE_DEP":62,"NOM_DEP":"Pas-de-Calais","Latitude":50.935,"Longitude":1.85,"code_postal":62185,"service_wifi":"Oui","traffic":"high","city":"Calais","id_region":"admin:fr:62360"},{"Nom_Gare":"\u00c9taples - Le Touquet","INSEE_REG":32,"NOM_REG":"Hauts-de-France","INSEE_DEP":62,"NOM_DEP":"Pas-de-Calais","Latitude":50.525,"Longitude":1.589,"code_postal":62630,"service_wifi":"Non","traffic":"high","city":"Le Touquet-Paris-Plage","id_region":"admin:fr:62318"},{"Nom_Gare":"Lens","INSEE_REG":32,"NOM_REG":"Hauts-de-France","INSEE_DEP":62,"NOM_DEP":"Pas-de-Calais","Latitude":50.419,"Longitude":3.027,"code_postal":62300,"service_wifi":"Oui","traffic":"high","city":"Courcelles-l\u00e8s-Lens","id_region":"admin:fr:62498"},{"Nom_Gare":"Bayonne","INSEE_REG":75,"NOM_REG":"Nouvelle-Aquitaine","INSEE_DEP":64,"NOM_DEP":"Pyr\u00e9n\u00e9es-Atlantiques","Latitude":43.503,"Longitude":-1.443,"code_postal":64100,"service_wifi":"Oui","traffic":"high","city":"Bayonne","id_region":"admin:fr:64102"},{"Nom_Gare":"Biarritz","INSEE_REG":75,"NOM_REG":"Nouvelle-Aquitaine","INSEE_DEP":64,"NOM_DEP":"Pyr\u00e9n\u00e9es-Atlantiques","Latitude":43.472,"Longitude":-1.555,"code_postal":64200,"service_wifi":"Oui","traffic":"high","city":"Biarritz","id_region":"admin:fr:64122"},{"Nom_Gare":"Hendaye","INSEE_REG":75,"NOM_REG":"Nouvelle-Aquitaine","INSEE_DEP":64,"NOM_DEP":"Pyr\u00e9n\u00e9es-Atlantiques","Latitude":43.355,"Longitude":-1.774,"code_postal":64700,"service_wifi":"Oui","traffic":"high","city":"Hendaye","id_region":"admin:fr:64260"},{"Nom_Gare":"Orthez","INSEE_REG":75,"NOM_REG":"Nouvelle-Aquitaine","INSEE_DEP":64,"NOM_DEP":"Pyr\u00e9n\u00e9es-Atlantiques","Latitude":43.491,"Longitude":-0.768,"code_postal":64300,"service_wifi":"Non","traffic":"high","city":"Orthez","id_region":"admin:fr:64430"},{"Nom_Gare":"Pau","INSEE_REG":75,"NOM_REG":"Nouvelle-Aquitaine","INSEE_DEP":64,"NOM_DEP":"Pyr\u00e9n\u00e9es-Atlantiques","Latitude":43.295,"Longitude":-0.35,"code_postal":64000,"service_wifi":"Oui","traffic":"high","city":"Pau","id_region":"admin:fr:64445"},{"Nom_Gare":"Saint-Jean-de-Luz - Ciboure","INSEE_REG":75,"NOM_REG":"Nouvelle-Aquitaine","INSEE_DEP":64,"NOM_DEP":"Pyr\u00e9n\u00e9es-Atlantiques","Latitude":43.381,"Longitude":-1.676,"code_postal":64500,"service_wifi":"Non","traffic":"high","city":"Ciboure","id_region":"admin:fr:64483"},{"Nom_Gare":"Lourdes","INSEE_REG":76,"NOM_REG":"Occitanie","INSEE_DEP":65,"NOM_DEP":"Hautes-Pyr\u00e9n\u00e9es","Latitude":43.095,"Longitude":-0.049,"code_postal":65100,"service_wifi":"Oui","traffic":"high","city":"Lourdes","id_region":"admin:fr:65286"},{"Nom_Gare":"Tarbes","INSEE_REG":76,"NOM_REG":"Occitanie","INSEE_DEP":65,"NOM_DEP":"Hautes-Pyr\u00e9n\u00e9es","Latitude":43.232,"Longitude":0.071,"code_postal":65000,"service_wifi":"Oui","traffic":"high","city":"Tarbes","id_region":"admin:fr:65440"},{"Nom_Gare":"Perpignan","INSEE_REG":76,"NOM_REG":"Occitanie","INSEE_DEP":66,"NOM_DEP":"Pyr\u00e9n\u00e9es-Orientales","Latitude":42.697,"Longitude":2.888,"code_postal":66027,"service_wifi":"Oui","traffic":"high","city":"Perpignan","id_region":"admin:fr:66136"},{"Nom_Gare":"Saverne","INSEE_REG":44,"NOM_REG":"Grand Est","INSEE_DEP":67,"NOM_DEP":"Bas-Rhin","Latitude":48.744,"Longitude":7.359,"code_postal":67700,"service_wifi":"Non","traffic":"high","city":"Saverne","id_region":"admin:fr:67437"},{"Nom_Gare":"S\u00e9lestat","INSEE_REG":44,"NOM_REG":"Grand Est","INSEE_DEP":67,"NOM_DEP":"Bas-Rhin","Latitude":48.265,"Longitude":7.441,"code_postal":67600,"service_wifi":"Non","traffic":"high","city":"S\u00e9lestat","id_region":"admin:fr:67462"},{"Nom_Gare":"Colmar","INSEE_REG":44,"NOM_REG":"Grand Est","INSEE_DEP":68,"NOM_DEP":"Haut-Rhin","Latitude":48.077,"Longitude":7.361,"code_postal":68000,"service_wifi":"Oui","traffic":"high","city":"Colmar","id_region":"admin:fr:68066"},{"Nom_Gare":"Besan\u00e7on Franche-Comt\u00e9 TGV","INSEE_REG":84,"NOM_REG":"Auvergne-Rh\u00f4ne-Alpes","INSEE_DEP":69,"NOM_DEP":"Rh\u00f4ne","Latitude":45.985,"Longitude":4.706,"code_postal":25870,"service_wifi":"Oui","traffic":"high","city":"Villefranche-sur-Sa\u00f4ne","id_region":"admin:fr:25035"},{"Nom_Gare":"Chalon-sur-Sa\u00f4ne","INSEE_REG":27,"NOM_REG":"Bourgogne-Franche-Comt\u00e9","INSEE_DEP":71,"NOM_DEP":"Sa\u00f4ne-et-Loire","Latitude":46.789,"Longitude":4.841,"code_postal":71100,"service_wifi":"Oui","traffic":"high","city":"Chalon-sur-Sa\u00f4ne","id_region":"admin:fr:71076"},{"Nom_Gare":"Le Mans","INSEE_REG":52,"NOM_REG":"Pays de la Loire","INSEE_DEP":72,"NOM_DEP":"Sarthe","Latitude":47.999,"Longitude":0.192,"code_postal":72000,"service_wifi":"Oui","traffic":"high","city":"Le Mans","id_region":"admin:fr:72181"},{"Nom_Gare":"Sabl\u00e9-sur-Sarthe","INSEE_REG":52,"NOM_REG":"Pays de la Loire","INSEE_DEP":72,"NOM_DEP":"Sarthe","Latitude":47.837,"Longitude":-0.329,"code_postal":72300,"service_wifi":"Non","traffic":"high","city":"Sabl\u00e9-sur-Sarthe","id_region":"admin:fr:72264"},{"Nom_Gare":"Albertville","INSEE_REG":84,"NOM_REG":"Auvergne-Rh\u00f4ne-Alpes","INSEE_DEP":73,"NOM_DEP":"Savoie","Latitude":45.659,"Longitude":6.384,"code_postal":73200,"service_wifi":"Non","traffic":"high","city":"Albertville","id_region":"admin:fr:73011"},{"Nom_Gare":"Bourg-Saint-Maurice","INSEE_REG":84,"NOM_REG":"Auvergne-Rh\u00f4ne-Alpes","INSEE_DEP":73,"NOM_DEP":"Savoie","Latitude":45.573,"Longitude":6.828,"code_postal":73700,"service_wifi":"Oui","traffic":"high","city":"Bourg-Saint-Maurice","id_region":"admin:fr:73054"},{"Nom_Gare":"Chamb\u00e9ry - Challes-les-Eaux","INSEE_REG":84,"NOM_REG":"Auvergne-Rh\u00f4ne-Alpes","INSEE_DEP":73,"NOM_DEP":"Savoie","Latitude":45.559,"Longitude":5.975,"code_postal":73010,"service_wifi":"Oui","traffic":"high","city":"Challes-les-Eaux","id_region":"admin:fr:73065"},{"Nom_Gare":"Landry","INSEE_REG":84,"NOM_REG":"Auvergne-Rh\u00f4ne-Alpes","INSEE_DEP":73,"NOM_DEP":"Savoie","Latitude":45.576,"Longitude":6.736,"code_postal":73210,"service_wifi":"Non","traffic":"medium","city":"Landry","id_region":"admin:fr:73142"},{"Nom_Gare":"Modane","INSEE_REG":84,"NOM_REG":"Auvergne-Rh\u00f4ne-Alpes","INSEE_DEP":73,"NOM_DEP":"Savoie","Latitude":45.201,"Longitude":6.671,"code_postal":73500,"service_wifi":"Non","traffic":"high","city":"Modane","id_region":"admin:fr:73157"},{"Nom_Gare":"Saint-Avre - La Chambre","INSEE_REG":84,"NOM_REG":"Auvergne-Rh\u00f4ne-Alpes","INSEE_DEP":73,"NOM_DEP":"Savoie","Latitude":45.356,"Longitude":6.304,"code_postal":73130,"service_wifi":"Non","traffic":"high","city":"Saint-Avre","id_region":"admin:fr:73224"},{"Nom_Gare":"Annecy","INSEE_REG":84,"NOM_REG":"Auvergne-Rh\u00f4ne-Alpes","INSEE_DEP":74,"NOM_DEP":"Haute-Savoie","Latitude":45.898,"Longitude":6.119,"code_postal":74000,"service_wifi":"Oui","traffic":"high","city":"Annecy","id_region":"admin:fr:74010"},{"Nom_Gare":"Annemasse","INSEE_REG":84,"NOM_REG":"Auvergne-Rh\u00f4ne-Alpes","INSEE_DEP":74,"NOM_DEP":"Haute-Savoie","Latitude":46.185,"Longitude":6.242,"code_postal":74100,"service_wifi":"Non","traffic":"high","city":"Annemasse","id_region":"admin:fr:74012"},{"Nom_Gare":"\u00c9vian-les-Bains","INSEE_REG":84,"NOM_REG":"Auvergne-Rh\u00f4ne-Alpes","INSEE_DEP":74,"NOM_DEP":"Haute-Savoie","Latitude":46.398,"Longitude":6.602,"code_postal":74500,"service_wifi":"Non","traffic":"high","city":"Neuvecelle","id_region":"admin:fr:74119"},{"Nom_Gare":"Sallanches - Combloux - Meg\u00e8ve","INSEE_REG":84,"NOM_REG":"Auvergne-Rh\u00f4ne-Alpes","INSEE_DEP":74,"NOM_DEP":"Haute-Savoie","Latitude":45.901,"Longitude":6.643,"code_postal":74700,"service_wifi":"Non","traffic":"high","city":"Combloux","id_region":"admin:fr:74256"},{"Nom_Gare":"Thonon-les-Bains","INSEE_REG":84,"NOM_REG":"Auvergne-Rh\u00f4ne-Alpes","INSEE_DEP":74,"NOM_DEP":"Haute-Savoie","Latitude":46.374,"Longitude":6.485,"code_postal":74200,"service_wifi":"Non","traffic":"high","city":"Thonon-les-Bains","id_region":"admin:fr:74281"},{"Nom_Gare":"Le Havre","INSEE_REG":28,"NOM_REG":"Normandie","INSEE_DEP":76,"NOM_DEP":"Seine-Maritime","Latitude":49.505,"Longitude":0.174,"code_postal":76600,"service_wifi":"Oui","traffic":"high","city":"Le Havre","id_region":"admin:fr:76351"},{"Nom_Gare":"Mantes-la-Jolie","INSEE_REG":11,"NOM_REG":"\u00cele-de-France","INSEE_DEP":78,"NOM_DEP":"Yvelines","Latitude":48.994,"Longitude":1.721,"code_postal":78200,"service_wifi":"Non","traffic":"high","city":"Aime-La Plagne","id_region":"admin:fr:78361"},{"Nom_Gare":"Niort","INSEE_REG":75,"NOM_REG":"Nouvelle-Aquitaine","INSEE_DEP":79,"NOM_DEP":"Deux-S\u00e8vres","Latitude":46.319,"Longitude":-0.458,"code_postal":79000,"service_wifi":"Oui","traffic":"high","city":"Niort","id_region":"admin:fr:79191"},{"Nom_Gare":"Amiens","INSEE_REG":32,"NOM_REG":"Hauts-de-France","INSEE_DEP":80,"NOM_DEP":"Somme","Latitude":49.9,"Longitude":2.289,"code_postal":80017,"service_wifi":"Oui","traffic":"high","city":"Amiens","id_region":"admin:fr:80021"},{"Nom_Gare":"Les Arcs - Draguignan","INSEE_REG":93,"NOM_REG":"Provence-Alpes-C\u00f4te d'Azur","INSEE_DEP":83,"NOM_DEP":"Var","Latitude":43.504,"Longitude":6.483,"code_postal":83460,"service_wifi":"Oui","traffic":"high","city":"Trans-en-Provence","id_region":"admin:fr:83004"},{"Nom_Gare":"Hy\u00e8res","INSEE_REG":93,"NOM_REG":"Provence-Alpes-C\u00f4te d'Azur","INSEE_DEP":83,"NOM_DEP":"Var","Latitude":43.09,"Longitude":6.123,"code_postal":83400,"service_wifi":"Non","traffic":"high","city":"Hy\u00e8res","id_region":"admin:fr:83069"},{"Nom_Gare":"Toulon","INSEE_REG":93,"NOM_REG":"Provence-Alpes-C\u00f4te d'Azur","INSEE_DEP":83,"NOM_DEP":"Var","Latitude":43.133,"Longitude":5.964,"code_postal":83000,"service_wifi":"Oui","traffic":"high","city":"Toulon","id_region":"admin:fr:83137"},{"Nom_Gare":"Orange","INSEE_REG":93,"NOM_REG":"Provence-Alpes-C\u00f4te d'Azur","INSEE_DEP":84,"NOM_DEP":"Vaucluse","Latitude":44.14,"Longitude":4.812,"code_postal":84100,"service_wifi":"Non","traffic":"high","city":"Orange","id_region":"admin:fr:84087"},{"Nom_Gare":"La Roche-sur-Yon","INSEE_REG":52,"NOM_REG":"Pays de la Loire","INSEE_DEP":85,"NOM_DEP":"Vend\u00e9e","Latitude":46.67,"Longitude":-1.432,"code_postal":85000,"service_wifi":"Oui","traffic":"high","city":"La Roche-sur-Yon","id_region":"admin:fr:85191"},{"Nom_Gare":"Les Sables-d'Olonne","INSEE_REG":52,"NOM_REG":"Pays de la Loire","INSEE_DEP":85,"NOM_DEP":"Vend\u00e9e","Latitude":46.479,"Longitude":-1.758,"code_postal":85100,"service_wifi":"Non","traffic":"high","city":"Les Sables-d'Olonne","id_region":"admin:fr:85194"},{"Nom_Gare":"Ch\u00e2tellerault","INSEE_REG":75,"NOM_REG":"Nouvelle-Aquitaine","INSEE_DEP":86,"NOM_DEP":"Vienne","Latitude":46.796,"Longitude":0.525,"code_postal":86100,"service_wifi":"Oui","traffic":"high","city":"Ch\u00e2tellerault","id_region":"admin:fr:86066"},{"Nom_Gare":"Futuroscope","INSEE_REG":75,"NOM_REG":"Nouvelle-Aquitaine","INSEE_DEP":86,"NOM_DEP":"Vienne","Latitude":46.659,"Longitude":0.362,"code_postal":86360,"service_wifi":"Non","traffic":"high","city":"Chasseneuil-du-Poitou","id_region":"admin:fr:86062"},{"Nom_Gare":"Poitiers","INSEE_REG":75,"NOM_REG":"Nouvelle-Aquitaine","INSEE_DEP":86,"NOM_DEP":"Vienne","Latitude":46.579,"Longitude":0.335,"code_postal":86000,"service_wifi":"Oui","traffic":"high","city":"Poitiers","id_region":"admin:fr:86194"},{"Nom_Gare":"\u00c9pinal","INSEE_REG":44,"NOM_REG":"Grand Est","INSEE_DEP":88,"NOM_DEP":"Vosges","Latitude":48.175,"Longitude":6.45,"code_postal":88000,"service_wifi":"Non","traffic":"high","city":"\u00c9pinal","id_region":"admin:fr:88160"},{"Nom_Gare":"Remiremont","INSEE_REG":44,"NOM_REG":"Grand Est","INSEE_DEP":88,"NOM_DEP":"Vosges","Latitude":48.006,"Longitude":6.604,"code_postal":88200,"service_wifi":"Non","traffic":"high","city":"Remiremont","id_region":"admin:fr:88383"},{"Nom_Gare":"Saint-Di\u00e9-des-Vosges","INSEE_REG":44,"NOM_REG":"Grand Est","INSEE_DEP":88,"NOM_DEP":"Vosges","Latitude":48.293,"Longitude":6.962,"code_postal":88100,"service_wifi":"Non","traffic":"high","city":"Saint-Di\u00e9-des-Vosges","id_region":"admin:fr:88413"},{"Nom_Gare":"Saint-Michel - Valloire","INSEE_REG":44,"NOM_REG":"Grand Est","INSEE_DEP":88,"NOM_DEP":"Vosges","Latitude":48.157,"Longitude":6.134,"code_postal":73450,"service_wifi":"Non","traffic":"high","city":"Les Vallois","id_region":"admin:fr:73261"},{"Nom_Gare":"Belfort - Montb\u00e9liard TGV","INSEE_REG":27,"NOM_REG":"Bourgogne-Franche-Comt\u00e9","INSEE_DEP":90,"NOM_DEP":"Territoire de Belfort","Latitude":47.637,"Longitude":6.858,"code_postal":90400,"service_wifi":"Oui","traffic":"high","city":"Belfort","id_region":"admin:fr:90068"},{"Nom_Gare":"Massy TGV","INSEE_REG":11,"NOM_REG":"\u00cele-de-France","INSEE_DEP":91,"NOM_DEP":"Essonne","Latitude":48.736,"Longitude":2.291,"code_postal":91300,"service_wifi":"Oui","traffic":"high","city":"Antony","id_region":"admin:fr:91377"}]