[{"Identifiant Mus\u00e9ofile":"M0967","R\u00e9gion administrative":"Auvergne-Rh\u00f4ne-Alpes","D\u00e9partement":"Ain","Commune":"Lochieu","Nom officiel du mus\u00e9e":"mus\u00e9e du Bugey-Valromey","Adresse":"3 rue Centrale","Code Postal":1260.0,"T\u00e9l\u00e9phone":"04 79 87 52 23","URL":"patrimoines.ain.fr\/n\/musee-du-bugey-valromey\/n:970","Latitude":45.930633,"Longitude":5.727664,"REF_Deps":"0121801"},{"Identifiant Mus\u00e9ofile":"M0964","R\u00e9gion administrative":"Auvergne-Rh\u00f4ne-Alpes","D\u00e9partement":"Ain","Commune":"Bourg-en-Bresse","Nom officiel du mus\u00e9e":"mus\u00e9es des pays de l'Ain","Adresse":"34, rue G\u00e9n\u00e9ral Delestraint","Code Postal":1000.0,"T\u00e9l\u00e9phone":"04 74 32 10 60","URL":"www.ain.fr\/solutions-services-infos-pratiques\/culture-patrimoine\/visiter-musees\/","Latitude":46.196543,"Longitude":5.219217,"REF_Deps":"0105302"},{"Identifiant Mus\u00e9ofile":"M0965","R\u00e9gion administrative":"Auvergne-Rh\u00f4ne-Alpes","D\u00e9partement":"Ain","Commune":"Briord","Nom officiel du mus\u00e9e":"mus\u00e9e de la soci\u00e9t\u00e9 d'histoire et d'arch\u00e9ologie","Adresse":null,"Code Postal":1470.0,"T\u00e9l\u00e9phone":"04 74 36 72 06 (mairie)","URL":"patrimoines.ain.fr\/n\/musee-d-archeologie-de-briord\/n:1165","Latitude":45.781653,"Longitude":5.458569,"REF_Deps":"0106401"},{"Identifiant Mus\u00e9ofile":"M0971","R\u00e9gion administrative":"Auvergne-Rh\u00f4ne-Alpes","D\u00e9partement":"Ain","Commune":"Pont-de-Vaux","Nom officiel du mus\u00e9e":"mus\u00e9e Chintreuil","Adresse":"66 rue Mar\u00e9chal de Lattre-de-Tassigny","Code Postal":1190.0,"T\u00e9l\u00e9phone":"03 85 51 45 75","URL":"www.musee-chintreuil.com\/","Latitude":46.430076,"Longitude":4.938125,"REF_Deps":"0130501"},{"Identifiant Mus\u00e9ofile":"M0974","R\u00e9gion administrative":"Auvergne-Rh\u00f4ne-Alpes","D\u00e9partement":"Ain","Commune":"Seyssel","Nom officiel du mus\u00e9e":"mus\u00e9e du bois","Adresse":"place de la R\u00e9publique","Code Postal":1420.0,"T\u00e9l\u00e9phone":"04 50 56 21 55 (mairie)","URL":null,"Latitude":45.959038,"Longitude":5.831489,"REF_Deps":"0140701"},{"Identifiant Mus\u00e9ofile":"M0966","R\u00e9gion administrative":"Auvergne-Rh\u00f4ne-Alpes","D\u00e9partement":"Ain","Commune":"Izernore","Nom officiel du mus\u00e9e":"mus\u00e9e arch\u00e9ologique","Adresse":"Place de l'Eglise","Code Postal":1580.0,"T\u00e9l\u00e9phone":"04 74 49 20 42","URL":"www.archeologie-izernore.com\/pages\/musee_historique.htm","Latitude":46.219853,"Longitude":5.555588,"REF_Deps":"0119201"},{"Identifiant Mus\u00e9ofile":"M0968","R\u00e9gion administrative":"Auvergne-Rh\u00f4ne-Alpes","D\u00e9partement":"Ain","Commune":"Nantua","Nom officiel du mus\u00e9e":"mus\u00e9e de la r\u00e9sistance et de la d\u00e9portation de l'Ain","Adresse":"3 mont\u00e9e de l'abbaye","Code Postal":1130.0,"T\u00e9l\u00e9phone":"04 74 75 07 50","URL":"patrimoines.ain.fr\/n\/musee-de-la-resistance-et-de-la-deportation\/n:809","Latitude":46.152378,"Longitude":5.608744,"REF_Deps":"0126901"},{"Identifiant Mus\u00e9ofile":"M0970","R\u00e9gion administrative":"Auvergne-Rh\u00f4ne-Alpes","D\u00e9partement":"Ain","Commune":"P\u00e9rouges","Nom officiel du mus\u00e9e":"mus\u00e9e du vieux P\u00e9rouges","Adresse":"place du Tilleul","Code Postal":1800.0,"T\u00e9l\u00e9phone":"04 74 61 00 88","URL":null,"Latitude":45.903299,"Longitude":5.179502,"REF_Deps":"0129001"},{"Identifiant Mus\u00e9ofile":"M0973","R\u00e9gion administrative":"Auvergne-Rh\u00f4ne-Alpes","D\u00e9partement":"Ain","Commune":"Saint-Paul-de-Varax","Nom officiel du mus\u00e9e":"mus\u00e9e Louis Jourdan","Adresse":"place Louis-Jourdan","Code Postal":1240.0,"T\u00e9l\u00e9phone":"04 74 50 50 13","URL":"www.mairie-saintpauldevarax.fr\/fr\/information\/35728\/musee-louis-jourdan","Latitude":46.098973,"Longitude":5.129264,"REF_Deps":"0138301"},{"Identifiant Mus\u00e9ofile":"M0975","R\u00e9gion administrative":"Auvergne-Rh\u00f4ne-Alpes","D\u00e9partement":"Ain","Commune":"Treffort-Cuisiat","Nom officiel du mus\u00e9e":"mus\u00e9e du Revermont","Adresse":"40 rue Principale","Code Postal":1000.0,"T\u00e9l\u00e9phone":"04 74 51 32 42","URL":"patrimoines.ain.fr\/n\/musee-du-revermont\/n:811","Latitude":46.209952,"Longitude":5.243955,"REF_Deps":"0113701"},{"Identifiant Mus\u00e9ofile":"M1082","R\u00e9gion administrative":"Auvergne-Rh\u00f4ne-Alpes","D\u00e9partement":"Ain","Commune":"Villars-les-Dombes","Nom officiel du mus\u00e9e":"mus\u00e9e de la Dombes","Adresse":"34 rue du G\u00e9n\u00e9ral-Delestraint","Code Postal":1330.0,"T\u00e9l\u00e9phone":"04 74 32 10 60","URL":"www.museedeladombes.fr\/","Latitude":46.005784,"Longitude":5.032151,"REF_Deps":"0144301"},{"Identifiant Mus\u00e9ofile":"M0963","R\u00e9gion administrative":"Auvergne-Rh\u00f4ne-Alpes","D\u00e9partement":"Ain","Commune":"Bourg-en-Bresse","Nom officiel du mus\u00e9e":"mus\u00e9e de Brou","Adresse":"63 boulevard de Brou","Code Postal":1000.0,"T\u00e9l\u00e9phone":"04 74 22 83 83","URL":"www.monastere-de-brou.fr\/#","Latitude":46.196549,"Longitude":5.236521,"REF_Deps":"0105301"},{"Identifiant Mus\u00e9ofile":"M0969","R\u00e9gion administrative":"Auvergne-Rh\u00f4ne-Alpes","D\u00e9partement":"Ain","Commune":"Oyonnax","Nom officiel du mus\u00e9e":"mus\u00e9e du peigne et de la plasturgie","Adresse":"Place Georges Pompidou","Code Postal":10100.0,"T\u00e9l\u00e9phone":"04 74 81 96 82","URL":"www.oyonnax.fr\/mes-loisirs\/culture\/musee-du-peigne-et-de-la-plasturgie\/","Latitude":46.2610193791,"Longitude":5.6480755469,"REF_Deps":"0128301"},{"Identifiant Mus\u00e9ofile":"M0972","R\u00e9gion administrative":"Auvergne-Rh\u00f4ne-Alpes","D\u00e9partement":"Ain","Commune":"Saint-Cyr-sur-Menthon","Nom officiel du mus\u00e9e":"mus\u00e9e de la Bresse - domaine des Planons","Adresse":"987 chemin des Seigli\u00e8res","Code Postal":1380.0,"T\u00e9l\u00e9phone":"03 85 36 31 22","URL":"patrimoines.ain.fr\/n\/domaine-des-saveurs-les-planons\/n:810","Latitude":46.282489,"Longitude":4.986729,"REF_Deps":"0134301"},{"Identifiant Mus\u00e9ofile":"M0109","R\u00e9gion administrative":"Auvergne-Rh\u00f4ne-Alpes","D\u00e9partement":"Allier","Commune":"Vichy","Nom officiel du mus\u00e9e":"mus\u00e9e des arts africains et asiatiques (maison du missionnaire)","Adresse":"16, avenue Thermale","Code Postal":3200.0,"T\u00e9l\u00e9phone":"04 70 97 76 40","URL":"musee-aaa.com\/","Latitude":46.128104,"Longitude":3.419803,"REF_Deps":"0331002"},{"Identifiant Mus\u00e9ofile":"M0108","R\u00e9gion administrative":"Auvergne-Rh\u00f4ne-Alpes","D\u00e9partement":"Allier","Commune":"Souvigny","Nom officiel du mus\u00e9e":"mus\u00e9e Saint-Marc","Adresse":"place Aristide Briand","Code Postal":3210.0,"T\u00e9l\u00e9phone":"04 70 43 99 75","URL":"www.ville-souvigny.com\/Musee\/index.html","Latitude":46.534866,"Longitude":3.192356,"REF_Deps":"0327501"},{"Identifiant Mus\u00e9ofile":"M0101","R\u00e9gion administrative":"Auvergne-Rh\u00f4ne-Alpes","D\u00e9partement":"Allier","Commune":"Beaulon","Nom officiel du mus\u00e9e":"mus\u00e9e rural de la Sologne bourbonnaise","Adresse":"11 route du donjon","Code Postal":3470.0,"T\u00e9l\u00e9phone":"04 70 42 22 34","URL":"association-csb.fr\/musee\/","Latitude":46.466871,"Longitude":3.748142,"REF_Deps":"0307401"},{"Identifiant Mus\u00e9ofile":"M0103","R\u00e9gion administrative":"Auvergne-Rh\u00f4ne-Alpes","D\u00e9partement":"Allier","Commune":"Gannat","Nom officiel du mus\u00e9e":"mus\u00e9e municipal","Adresse":"Esplanade Pierre Roch Jurien de la Gravi\u00e8re","Code Postal":3800.0,"T\u00e9l\u00e9phone":"04 70 90 23 78","URL":"www.ville-gannat.fr\/-Musee-.html","Latitude":46.1017762367,"Longitude":3.1965137136,"REF_Deps":"0311801"},{"Identifiant Mus\u00e9ofile":"M0104","R\u00e9gion administrative":"Auvergne-Rh\u00f4ne-Alpes","D\u00e9partement":"Allier","Commune":"Montlu\u00e7on","Nom officiel du mus\u00e9e":"mus\u00e9e des musiques populaires (vieux ch\u00e2teau)","Adresse":"3 rue Notre Dame","Code Postal":3100.0,"T\u00e9l\u00e9phone":"04 70 02 19 60","URL":"www.mupop.fr\/","Latitude":46.341009,"Longitude":2.605724,"REF_Deps":"0318501"},{"Identifiant Mus\u00e9ofile":"M0102","R\u00e9gion administrative":"Auvergne-Rh\u00f4ne-Alpes","D\u00e9partement":"Allier","Commune":"C\u00e9rilly","Nom officiel du mus\u00e9e":"mus\u00e9e Charles-Louis Philippe","Adresse":"5 rue Charles-Louis-Philippe","Code Postal":3350.0,"T\u00e9l\u00e9phone":"04 70 67 52 00","URL":"musees-bourbonnais.fr\/musees\/maison-musee-charles-louis-philippe\/","Latitude":46.617913,"Longitude":2.823245,"REF_Deps":"0304801"},{"Identifiant Mus\u00e9ofile":"M0106","R\u00e9gion administrative":"Auvergne-Rh\u00f4ne-Alpes","D\u00e9partement":"Allier","Commune":"Moulins","Nom officiel du mus\u00e9e":"mus\u00e9e Anne de Beaujeu","Adresse":"Pavillon Anne de Beaujeu. Place du Colonel Laussedat","Code Postal":3000.0,"T\u00e9l\u00e9phone":"04 70 20 48 47","URL":"musees.allier.fr\/410-presentation.htm","Latitude":46.56707,"Longitude":3.331218,"REF_Deps":"0319001"},{"Identifiant Mus\u00e9ofile":"M0107","R\u00e9gion administrative":"Auvergne-Rh\u00f4ne-Alpes","D\u00e9partement":"Allier","Commune":"N\u00e9ris-les-Bains","Nom officiel du mus\u00e9e":"mus\u00e9e gallo-romain","Adresse":"4, rue Monthyon","Code Postal":3310.0,"T\u00e9l\u00e9phone":"04 70 03 42 11","URL":"www.ot-neris-les-bains.fr\/decouvrir\/au-fil-du-temps\/musee-gallo-romain\/","Latitude":46.287552,"Longitude":2.662598,"REF_Deps":"0319501"},{"Identifiant Mus\u00e9ofile":"M5083","R\u00e9gion administrative":"Auvergne-Rh\u00f4ne-Alpes","D\u00e9partement":"Allier","Commune":"Moulins-sur-Allier","Nom officiel du mus\u00e9e":"Centre national du costume de sc\u00e8ne et de la sc\u00e9nographie","Adresse":"Quartier Villars","Code Postal":3000.0,"T\u00e9l\u00e9phone":"04 70 20 76 20","URL":"www.cncs.fr\/","Latitude":46.560973,"Longitude":3.335798,"REF_Deps":"0319002"},{"Identifiant Mus\u00e9ofile":"M0979","R\u00e9gion administrative":"Auvergne-Rh\u00f4ne-Alpes","D\u00e9partement":"Ard\u00e8che","Commune":"Serri\u00e8res","Nom officiel du mus\u00e9e":"mus\u00e9e de la batellerie du Rh\u00f4ne","Adresse":"154 rue Auguste Vincent","Code Postal":7340.0,"T\u00e9l\u00e9phone":"04 75 34 00 46","URL":"www.serrieres.fr\/Musee-des-Mariniers-et-de-la","Latitude":45.317802,"Longitude":4.763253,"REF_Deps":"0731301"},{"Identifiant Mus\u00e9ofile":"M7058","R\u00e9gion administrative":"Auvergne-Rh\u00f4ne-Alpes","D\u00e9partement":"Ard\u00e8che","Commune":"Privas","Nom officiel du mus\u00e9e":"mus\u00e9e de la terre ard\u00e9choise","Adresse":"2 place des R\u00e9collets","Code Postal":7000.0,"T\u00e9l\u00e9phone":"04 75 64 43 69","URL":null,"Latitude":44.735836,"Longitude":4.594922,"REF_Deps":"0718601"},{"Identifiant Mus\u00e9ofile":"M0978","R\u00e9gion administrative":"Auvergne-Rh\u00f4ne-Alpes","D\u00e9partement":"Ard\u00e8che","Commune":"Orgnac-l'Aven","Nom officiel du mus\u00e9e":"Cit\u00e9 de pr\u00e9histoire","Adresse":"Site de l'aven d'Orgnac","Code Postal":7150.0,"T\u00e9l\u00e9phone":"04 75 38 65 10","URL":"www.orgnac.com\/","Latitude":44.310413,"Longitude":4.425665,"REF_Deps":"0716801"},{"Identifiant Mus\u00e9ofile":"M0981","R\u00e9gion administrative":"Auvergne-Rh\u00f4ne-Alpes","D\u00e9partement":"Ard\u00e8che","Commune":"Tournon-sur-Rh\u00f4ne","Nom officiel du mus\u00e9e":"mus\u00e9e du Rh\u00f4ne","Adresse":"14, place Auguste Faure","Code Postal":7300.0,"T\u00e9l\u00e9phone":"04 75 08 10 30","URL":"www.chateaumusee-tournon.com\/","Latitude":45.067938,"Longitude":4.831838,"REF_Deps":"0732401"},{"Identifiant Mus\u00e9ofile":"M0976","R\u00e9gion administrative":"Auvergne-Rh\u00f4ne-Alpes","D\u00e9partement":"Ard\u00e8che","Commune":"Annonay","Nom officiel du mus\u00e9e":"mus\u00e9e vivarois C\u00e9sar Filhol","Adresse":"15 rue Jean-Baptiste B\u00e9chetoille","Code Postal":7100.0,"T\u00e9l\u00e9phone":"04 75 67 67 93","URL":"www.mairie-annonay.fr\/Musee-Cesar-Filhol.html","Latitude":45.240803,"Longitude":4.668129,"REF_Deps":"0701001"},{"Identifiant Mus\u00e9ofile":"M0980","R\u00e9gion administrative":"Auvergne-Rh\u00f4ne-Alpes","D\u00e9partement":"Ard\u00e8che","Commune":"Soyons","Nom officiel du mus\u00e9e":"mus\u00e9e arch\u00e9ologique","Adresse":"Place de la d\u00e9esse So\u00efo","Code Postal":7130.0,"T\u00e9l\u00e9phone":"04 75 60 88 86","URL":"www.grottes-musee-soyons.fr\/","Latitude":44.887803,"Longitude":4.850777,"REF_Deps":"0731601"},{"Identifiant Mus\u00e9ofile":"M0977","R\u00e9gion administrative":"Auvergne-Rh\u00f4ne-Alpes","D\u00e9partement":"Ard\u00e8che","Commune":"Les Vans","Nom officiel du mus\u00e9e":"mus\u00e9e r\u00e9gional","Adresse":null,"Code Postal":7140.0,"T\u00e9l\u00e9phone":"04 75 37 24 48","URL":"www.les-vans.fr\/vivre-ici\/structures-culturelles\/musee\/","Latitude":44.404332,"Longitude":4.131418,"REF_Deps":"0733401"},{"Identifiant Mus\u00e9ofile":"M1174","R\u00e9gion administrative":"Auvergne-Rh\u00f4ne-Alpes","D\u00e9partement":"Ard\u00e8che","Commune":"Alba-la-Romaine","Nom officiel du mus\u00e9e":"mus\u00e9AL mus\u00e9e d\u00e9partemental arch\u00e9ologique","Adresse":"Quartier St Pierre - RD 107","Code Postal":7400.0,"T\u00e9l\u00e9phone":"04 75 52 45 15","URL":"www.museal.ardeche.fr\/","Latitude":44.561507,"Longitude":4.592008,"REF_Deps":"0700501"},{"Identifiant Mus\u00e9ofile":"M0114","R\u00e9gion administrative":"Auvergne-Rh\u00f4ne-Alpes","D\u00e9partement":"Cantal","Commune":"Saint-Flour","Nom officiel du mus\u00e9e":"mus\u00e9e Alfred Dou\u00ebt","Adresse":"17, place d'Armes","Code Postal":15100.0,"T\u00e9l\u00e9phone":"04 71 60 44 99","URL":"www.saint-flour.net\/sortir\/musee-art-et-histoire-alfred-douet\/","Latitude":45.034016,"Longitude":3.095067,"REF_Deps":"1518702"},{"Identifiant Mus\u00e9ofile":"M7018","R\u00e9gion administrative":"Auvergne-Rh\u00f4ne-Alpes","D\u00e9partement":"Cantal","Commune":"Aurillac","Nom officiel du mus\u00e9e":"mus\u00e9e des sciences","Adresse":"Ch\u00e2teau Saint-Etienne","Code Postal":15000.0,"T\u00e9l\u00e9phone":"04 71 48 07 00","URL":"musees.aurillac.fr\/","Latitude":44.932919,"Longitude":2.444912,"REF_Deps":"1501401"},{"Identifiant Mus\u00e9ofile":"M0110","R\u00e9gion administrative":"Auvergne-Rh\u00f4ne-Alpes","D\u00e9partement":"Cantal","Commune":"Aurillac","Nom officiel du mus\u00e9e":"mus\u00e9e d'art et d'arch\u00e9ologie","Adresse":"37 rue des Carmes","Code Postal":15000.0,"T\u00e9l\u00e9phone":"04 71 45 46 10","URL":"musees.aurillac.fr\/","Latitude":44.925394,"Longitude":2.441947,"REF_Deps":"1501402"},{"Identifiant Mus\u00e9ofile":"M0112","R\u00e9gion administrative":"Auvergne-Rh\u00f4ne-Alpes","D\u00e9partement":"Cantal","Commune":"Ruynes-en-Margeride","Nom officiel du mus\u00e9e":"\u00e9comus\u00e9e de la Margeride","Adresse":"Bureau de tourisme","Code Postal":15320.0,"T\u00e9l\u00e9phone":"04 71 23 42 96","URL":"ecomuseedemargeride.fr\/","Latitude":45.000522,"Longitude":3.224427,"REF_Deps":"1516801"},{"Identifiant Mus\u00e9ofile":"M0113","R\u00e9gion administrative":"Auvergne-Rh\u00f4ne-Alpes","D\u00e9partement":"Cantal","Commune":"Saint-Flour","Nom officiel du mus\u00e9e":"mus\u00e9e de la Haute Auvergne","Adresse":"24 rue Sorel, apt 9","Code Postal":15100.0,"T\u00e9l\u00e9phone":"04 71 60 22 32","URL":"www.saint-flour.net\/sortir\/musee-de-la-haute-auvergne\/","Latitude":45.0343,"Longitude":3.092979,"REF_Deps":"1518701"},{"Identifiant Mus\u00e9ofile":"M0987","R\u00e9gion administrative":"Auvergne-Rh\u00f4ne-Alpes","D\u00e9partement":"Dr\u00f4me","Commune":"Saint-Paul-Trois-Ch\u00e2teaux","Nom officiel du mus\u00e9e":"mus\u00e9e arch\u00e9ologique","Adresse":"Place Castellane","Code Postal":26130.0,"T\u00e9l\u00e9phone":"04 75 04 74 19 (conservation)","URL":"www.musat.fr\/","Latitude":44.349149,"Longitude":4.768163,"REF_Deps":"2632401"},{"Identifiant Mus\u00e9ofile":"M0983","R\u00e9gion administrative":"Auvergne-Rh\u00f4ne-Alpes","D\u00e9partement":"Dr\u00f4me","Commune":"Grignan","Nom officiel du mus\u00e9e":"mus\u00e9e d\u00e9partemental du ch\u00e2teau","Adresse":"Le village","Code Postal":26230.0,"T\u00e9l\u00e9phone":"04 75 91 83 50","URL":"www.chateaux-ladrome.fr\/fr\/","Latitude":44.439013,"Longitude":4.873189,"REF_Deps":"2614601"},{"Identifiant Mus\u00e9ofile":"M0986","R\u00e9gion administrative":"Auvergne-Rh\u00f4ne-Alpes","D\u00e9partement":"Dr\u00f4me","Commune":"Romans","Nom officiel du mus\u00e9e":"mus\u00e9e de la chaussure","Adresse":"Rue Bistour","Code Postal":26100.0,"T\u00e9l\u00e9phone":"04 75 05 51 81","URL":"www.museedelachaussure.fr\/","Latitude":45.0431,"Longitude":5.055376,"REF_Deps":"2628101"},{"Identifiant Mus\u00e9ofile":"M0982","R\u00e9gion administrative":"Auvergne-Rh\u00f4ne-Alpes","D\u00e9partement":"Dr\u00f4me","Commune":"Die","Nom officiel du mus\u00e9e":"mus\u00e9e d'histoire et d'arch\u00e9ologie","Adresse":"11 rue Camille Buffardel","Code Postal":26150.0,"T\u00e9l\u00e9phone":"04 75 22 40 05","URL":"www.museededie.org\/","Latitude":44.75504,"Longitude":5.369785,"REF_Deps":"2611301"},{"Identifiant Mus\u00e9ofile":"M0984","R\u00e9gion administrative":"Auvergne-Rh\u00f4ne-Alpes","D\u00e9partement":"Dr\u00f4me","Commune":"Mont\u00e9limar","Nom officiel du mus\u00e9e":"mus\u00e9e du ch\u00e2teau des Adh\u00e9mar","Adresse":"19 rue Pierre Julien","Code Postal":26200.0,"T\u00e9l\u00e9phone":"04 75 53 79 24","URL":"www.chateaux-ladrome.fr\/fr\/","Latitude":44.556294,"Longitude":4.750056,"REF_Deps":"2619801"},{"Identifiant Mus\u00e9ofile":"M0985","R\u00e9gion administrative":"Auvergne-Rh\u00f4ne-Alpes","D\u00e9partement":"Dr\u00f4me","Commune":"Mours-Saint-Eus\u00e8be","Nom officiel du mus\u00e9e":"mus\u00e9e d'art sacr\u00e9","Adresse":"5 place Elis\u00e9e Monteil","Code Postal":26540.0,"T\u00e9l\u00e9phone":"04 75 79 27 17","URL":"www.mourssainteusebe.fr\/un-village-qui-bouge\/le-musee-darts-sacres","Latitude":45.07091,"Longitude":5.052549,"REF_Deps":"2621801"},{"Identifiant Mus\u00e9ofile":"M0988","R\u00e9gion administrative":"Auvergne-Rh\u00f4ne-Alpes","D\u00e9partement":"Dr\u00f4me","Commune":"Valence","Nom officiel du mus\u00e9e":"mus\u00e9e des beaux-arts","Adresse":"4 place des Ormeaux","Code Postal":26000.0,"T\u00e9l\u00e9phone":"04 75 79 20 80","URL":"www.museedevalence.fr\/","Latitude":44.931125,"Longitude":4.889563,"REF_Deps":"2636201"},{"Identifiant Mus\u00e9ofile":"M0989","R\u00e9gion administrative":"Auvergne-Rh\u00f4ne-Alpes","D\u00e9partement":"Dr\u00f4me","Commune":"Vassieux-en-Vercors","Nom officiel du mus\u00e9e":"mus\u00e9e du site pr\u00e9historique","Adresse":"L'H\u00e2le","Code Postal":26420.0,"T\u00e9l\u00e9phone":"04 75 48 27 81","URL":"www.parc-du-vercors.fr\/prehistoire\/home","Latitude":44.865703,"Longitude":5.357302,"REF_Deps":"2636401"},{"Identifiant Mus\u00e9ofile":"M0117","R\u00e9gion administrative":"Auvergne-Rh\u00f4ne-Alpes","D\u00e9partement":"Haute-Loire","Commune":"Retournac","Nom officiel du mus\u00e9e":"mus\u00e9e des manufactures de dentelles","Adresse":"14 Avenue de la Gare","Code Postal":43130.0,"T\u00e9l\u00e9phone":"04 71 59 41 63","URL":"www.ville-retournac.fr\/musee-des-manufactures-de-dentelles-mairie-retournac-43_fr.html","Latitude":45.202566,"Longitude":4.035268,"REF_Deps":"4316201"},{"Identifiant Mus\u00e9ofile":"M0118","R\u00e9gion administrative":"Auvergne-Rh\u00f4ne-Alpes","D\u00e9partement":"Haute-Loire","Commune":"Saint-Arcons-d'Allier","Nom officiel du mus\u00e9e":"mus\u00e9e de la ferblanterie","Adresse":null,"Code Postal":43300.0,"T\u00e9l\u00e9phone":"04 71 74 02 04","URL":null,"Latitude":45.067807,"Longitude":3.548896,"REF_Deps":"4316701"},{"Identifiant Mus\u00e9ofile":"M0116","R\u00e9gion administrative":"Auvergne-Rh\u00f4ne-Alpes","D\u00e9partement":"Haute-Loire","Commune":"Le Puy-en-Velay","Nom officiel du mus\u00e9e":"mus\u00e9e Crozatier","Adresse":"Jardin Henri Vinay","Code Postal":43000.0,"T\u00e9l\u00e9phone":"04 71 06 62 40","URL":"www.musee.patrimoine.lepuyenvelay.fr\/","Latitude":45.0386673846,"Longitude":3.8834560731,"REF_Deps":"4315701"},{"Identifiant Mus\u00e9ofile":"M7031","R\u00e9gion administrative":"Auvergne-Rh\u00f4ne-Alpes","D\u00e9partement":"Haute-Loire","Commune":"Chilhac","Nom officiel du mus\u00e9e":"mus\u00e9e de pal\u00e9ontologie","Adresse":"Place de l'Eglise","Code Postal":43380.0,"T\u00e9l\u00e9phone":"04 71 77 47 26","URL":"www.museechilhac.com","Latitude":45.148133,"Longitude":3.402324,"REF_Deps":"4307001"},{"Identifiant Mus\u00e9ofile":"M0115","R\u00e9gion administrative":"Auvergne-Rh\u00f4ne-Alpes","D\u00e9partement":"Haute-Loire","Commune":"Lavaudieu","Nom officiel du mus\u00e9e":"mus\u00e9e des arts et traditions populaires","Adresse":"Mus\u00e9e ATP","Code Postal":43100.0,"T\u00e9l\u00e9phone":"04 71 76 46 11","URL":"www.auvergnevacances.com\/marque_blanche\/brioude-activite\/detail\/visiter-auvergne\/musee-des-arts-et-traditions-populaires-de-la-haute-loire-lavaudieu\/","Latitude":45.275033,"Longitude":3.434883,"REF_Deps":"4311701"},{"Identifiant Mus\u00e9ofile":"M1053","R\u00e9gion administrative":"Auvergne-Rh\u00f4ne-Alpes","D\u00e9partement":"Haute-Savoie","Commune":"Chamonix","Nom officiel du mus\u00e9e":"mus\u00e9e alpin","Adresse":"89 avenue Michel Croz","Code Postal":74400.0,"T\u00e9l\u00e9phone":"04 50 55 29 46","URL":"musee-alpin-chamonix.fr\/fr\/infos-pratiques","Latitude":45.923429,"Longitude":6.871049,"REF_Deps":"7405601"},{"Identifiant Mus\u00e9ofile":"M1056","R\u00e9gion administrative":"Auvergne-Rh\u00f4ne-Alpes","D\u00e9partement":"Haute-Savoie","Commune":"Th\u00f4nes","Nom officiel du mus\u00e9e":"mus\u00e9e des Vall\u00e9es de Th\u00f4nes","Adresse":"2 rue Blanche","Code Postal":74230.0,"T\u00e9l\u00e9phone":"04 50 02 97 76","URL":"www.mairie-thones.fr\/fr\/information\/102186\/espace-museal","Latitude":45.881618,"Longitude":6.324161,"REF_Deps":"7428001"},{"Identifiant Mus\u00e9ofile":"M1054","R\u00e9gion administrative":"Auvergne-Rh\u00f4ne-Alpes","D\u00e9partement":"Haute-Savoie","Commune":"Lovagny","Nom officiel du mus\u00e9e":"mus\u00e9e L\u00e9on Mar\u00e8s","Adresse":"60 all\u00e9e du ch\u00e2teau","Code Postal":74330.0,"T\u00e9l\u00e9phone":"04 50 46 23 02","URL":"www.chateaudemontrottier.com\/","Latitude":45.89818,"Longitude":6.040579,"REF_Deps":"7415201"},{"Identifiant Mus\u00e9ofile":"M1055","R\u00e9gion administrative":"Auvergne-Rh\u00f4ne-Alpes","D\u00e9partement":"Haute-Savoie","Commune":"Rumilly","Nom officiel du mus\u00e9e":"mus\u00e9e de Rumilly et de l'Albanais","Adresse":"5 Place de la Manufacture","Code Postal":74150.0,"T\u00e9l\u00e9phone":"04 50 64 64 18","URL":"www.mairie-rumilly74.fr\/vos-services-publics\/culture\/notre-histoire-musee-de-rumilly\/","Latitude":45.861683,"Longitude":5.947732,"REF_Deps":"7422501"},{"Identifiant Mus\u00e9ofile":"M1057","R\u00e9gion administrative":"Auvergne-Rh\u00f4ne-Alpes","D\u00e9partement":"Haute-Savoie","Commune":"Thonon-les-Bains","Nom officiel du mus\u00e9e":"mus\u00e9e du Chablais","Adresse":"Square Eberbach","Code Postal":74200.0,"T\u00e9l\u00e9phone":"04 50 70 69 49","URL":"www.thononlesbains.com\/patrimoine-culturel\/musee-du-chablais-thonon-les-bains\/","Latitude":46.37487,"Longitude":6.48177,"REF_Deps":"7428102"},{"Identifiant Mus\u00e9ofile":"M1052","R\u00e9gion administrative":"Auvergne-Rh\u00f4ne-Alpes","D\u00e9partement":"Haute-Savoie","Commune":"Annecy","Nom officiel du mus\u00e9e":"mus\u00e9e-ch\u00e2teau","Adresse":"Place du ch\u00e2teau","Code Postal":74000.0,"T\u00e9l\u00e9phone":"04 50 33 87 30","URL":"musees.annecy.fr\/","Latitude":45.897263,"Longitude":6.124916,"REF_Deps":"7401001"},{"Identifiant Mus\u00e9ofile":"M0990","R\u00e9gion administrative":"Auvergne-Rh\u00f4ne-Alpes","D\u00e9partement":"Is\u00e8re","Commune":"Aoste","Nom officiel du mus\u00e9e":"mus\u00e9e des antiquit\u00e9s gallo-romaines","Adresse":"43 place du mus\u00e9e","Code Postal":38490.0,"T\u00e9l\u00e9phone":"04 76 32 58 27","URL":"www.mairie-aoste.org\/newpage1","Latitude":45.587605,"Longitude":5.60661,"REF_Deps":"3801201"},{"Identifiant Mus\u00e9ofile":"M0995","R\u00e9gion administrative":"Auvergne-Rh\u00f4ne-Alpes","D\u00e9partement":"Is\u00e8re","Commune":"Grenoble","Nom officiel du mus\u00e9e":"mus\u00e9e Stendhal","Adresse":"20 Grande Rue","Code Postal":38000.0,"T\u00e9l\u00e9phone":"04 76 86 52 08","URL":"www.bm-grenoble.fr\/1083-musee-stendhal.htm","Latitude":45.191481,"Longitude":5.728083,"REF_Deps":"3818507"},{"Identifiant Mus\u00e9ofile":"M0999","R\u00e9gion administrative":"Auvergne-Rh\u00f4ne-Alpes","D\u00e9partement":"Is\u00e8re","Commune":"Hi\u00e8res-sur-Ambly","Nom officiel du mus\u00e9e":"maison du patrimoine","Adresse":"place de l'Eglise","Code Postal":38118.0,"T\u00e9l\u00e9phone":"04 74 95 19 10","URL":"www.hieres-sur-amby.org\/index.php?menu=2&ssmenu=51&type=4","Latitude":45.797246,"Longitude":5.292625,"REF_Deps":"3819001"},{"Identifiant Mus\u00e9ofile":"M1006","R\u00e9gion administrative":"Auvergne-Rh\u00f4ne-Alpes","D\u00e9partement":"Is\u00e8re","Commune":"Vienne","Nom officiel du mus\u00e9e":"mus\u00e9e lapidaire Saint-Pierre","Adresse":"place Saint-Pierre","Code Postal":38200.0,"T\u00e9l\u00e9phone":"04 74 85 20 35","URL":"vienne.fr\/nos-services\/culture\/les-musees\/","Latitude":45.523234,"Longitude":4.870694,"REF_Deps":"3854402"},{"Identifiant Mus\u00e9ofile":"M1007","R\u00e9gion administrative":"Auvergne-Rh\u00f4ne-Alpes","D\u00e9partement":"Is\u00e8re","Commune":"Vienne","Nom officiel du mus\u00e9e":"mus\u00e9e du clo\u00eetre Saint-Andr\u00e9-le-Bas","Adresse":"place du Jeu de Paume","Code Postal":38200.0,"T\u00e9l\u00e9phone":"04 74 85 18 49","URL":"vienne.fr\/nos-services\/culture\/les-musees\/","Latitude":45.526967,"Longitude":4.873538,"REF_Deps":"3854401"},{"Identifiant Mus\u00e9ofile":"M0992","R\u00e9gion administrative":"Auvergne-Rh\u00f4ne-Alpes","D\u00e9partement":"Is\u00e8re","Commune":"Echirolles","Nom officiel du mus\u00e9e":"mus\u00e9e G\u00e9o-Charles","Adresse":"1 rue G\u00e9o-Charles","Code Postal":38130.0,"T\u00e9l\u00e9phone":"04 76 22 58 63","URL":"www.echirolles.fr\/culture-sports-loisirs\/expos-et-musees\/musee-geo-charles","Latitude":45.14935,"Longitude":5.699614,"REF_Deps":"3815101"},{"Identifiant Mus\u00e9ofile":"M0997","R\u00e9gion administrative":"Auvergne-Rh\u00f4ne-Alpes","D\u00e9partement":"Is\u00e8re","Commune":"Grenoble","Nom officiel du mus\u00e9e":"mus\u00e9e Saint-Laurent","Adresse":"place Saint-Laurent","Code Postal":38000.0,"T\u00e9l\u00e9phone":"04 76 44 78 68","URL":"musees.isere.fr\/musee\/musee-archeologique-saint-laurent","Latitude":45.19778,"Longitude":5.731922,"REF_Deps":"3818501"},{"Identifiant Mus\u00e9ofile":"M1123","R\u00e9gion administrative":"Auvergne-Rh\u00f4ne-Alpes","D\u00e9partement":"Is\u00e8re","Commune":"Allevard-les-Bains","Nom officiel du mus\u00e9e":"mus\u00e9e Jadis Allevard","Adresse":"Parc des Forges","Code Postal":38580.0,"T\u00e9l\u00e9phone":"04 76 45 16 40","URL":"musees.le-gresivaudan.fr\/musee-dallevard-2\/","Latitude":45.3925431649,"Longitude":6.0771354376,"REF_Deps":"3800601"},{"Identifiant Mus\u00e9ofile":"M7038","R\u00e9gion administrative":"Auvergne-Rh\u00f4ne-Alpes","D\u00e9partement":"Is\u00e8re","Commune":"Grenoble","Nom officiel du mus\u00e9e":"mus\u00e9um d'histoire naturelle","Adresse":"1 rue Dolomieu","Code Postal":38000.0,"T\u00e9l\u00e9phone":"04 76 44 05 35","URL":"www.grenoble.fr\/1607-museum-de-grenoble.htm","Latitude":45.188059,"Longitude":5.735163,"REF_Deps":"3818503"},{"Identifiant Mus\u00e9ofile":"M0993","R\u00e9gion administrative":"Auvergne-Rh\u00f4ne-Alpes","D\u00e9partement":"Is\u00e8re","Commune":"Grand'Maison","Nom officiel du mus\u00e9e":"conservatoire-mus\u00e9e des industries hydro\u00e9lectriques","Adresse":"Route du Lac, le Verney","Code Postal":38114.0,"T\u00e9l\u00e9phone":"04 76 80 78 00","URL":"www.musee-edf-hydrelec.com\/","Latitude":45.147612,"Longitude":6.049634,"REF_Deps":"3800501"},{"Identifiant Mus\u00e9ofile":"M0994","R\u00e9gion administrative":"Auvergne-Rh\u00f4ne-Alpes","D\u00e9partement":"Is\u00e8re","Commune":"Grenoble","Nom officiel du mus\u00e9e":"mus\u00e9e de Grenoble","Adresse":"5 place Lavalette","Code Postal":38000.0,"T\u00e9l\u00e9phone":"04 76 63 44 44","URL":"www.museedegrenoble.fr\/","Latitude":45.194026,"Longitude":5.732094,"REF_Deps":"3818505"},{"Identifiant Mus\u00e9ofile":"M1001","R\u00e9gion administrative":"Auvergne-Rh\u00f4ne-Alpes","D\u00e9partement":"Is\u00e8re","Commune":"La C\u00f4te-Saint-Andr\u00e9","Nom officiel du mus\u00e9e":"mus\u00e9e Hector Berlioz","Adresse":"69 rue de La R\u00e9publique","Code Postal":38260.0,"T\u00e9l\u00e9phone":"04 74 20 24 88","URL":"musees.isere.fr\/musee\/musee-hector-berlioz","Latitude":45.393386,"Longitude":5.261189,"REF_Deps":"3813001"},{"Identifiant Mus\u00e9ofile":"M0991","R\u00e9gion administrative":"Auvergne-Rh\u00f4ne-Alpes","D\u00e9partement":"Is\u00e8re","Commune":"Bourgoin-Jallieu","Nom officiel du mus\u00e9e":"mus\u00e9e de Bourgoin-Jallieu","Adresse":"17 rue Victor Hugo","Code Postal":38300.0,"T\u00e9l\u00e9phone":"04 74 28 19 74","URL":"www.bourgoinjallieu.fr\/loisirs\/culture\/musee","Latitude":45.586588,"Longitude":5.279159,"REF_Deps":"3805301"},{"Identifiant Mus\u00e9ofile":"M0998","R\u00e9gion administrative":"Auvergne-Rh\u00f4ne-Alpes","D\u00e9partement":"Is\u00e8re","Commune":"Grenoble","Nom officiel du mus\u00e9e":"mus\u00e9e de la r\u00e9sistance et de la d\u00e9portation","Adresse":"14 rue H\u00e9bert","Code Postal":38000.0,"T\u00e9l\u00e9phone":"04 76 42 38 53","URL":"musees.isere.fr\/musee\/musee-de-la-resistance-et-de-la-deportation-de-lisere","Latitude":45.190041,"Longitude":5.735245,"REF_Deps":"3818508"},{"Identifiant Mus\u00e9ofile":"M1002","R\u00e9gion administrative":"Auvergne-Rh\u00f4ne-Alpes","D\u00e9partement":"Is\u00e8re","Commune":"La Mure","Nom officiel du mus\u00e9e":"mus\u00e9e du pays matheysin","Adresse":"Rue du Colonel Escallon","Code Postal":38350.0,"T\u00e9l\u00e9phone":"04 76 30 98 15","URL":"lamure.fr\/category\/culture\/equipements-culturels\/musee-matheysin","Latitude":44.904362,"Longitude":5.784427,"REF_Deps":"3826901"},{"Identifiant Mus\u00e9ofile":"M1137","R\u00e9gion administrative":"Auvergne-Rh\u00f4ne-Alpes","D\u00e9partement":"Is\u00e8re","Commune":"Voiron","Nom officiel du mus\u00e9e":"mus\u00e9e Mainssieux","Adresse":"7 place L\u00e9on Chaloin","Code Postal":38500.0,"T\u00e9l\u00e9phone":"04 76 65 67 17","URL":"html#.YFtE-ZvjLZ4","Latitude":45.356047,"Longitude":5.579652,"REF_Deps":"3856301"},{"Identifiant Mus\u00e9ofile":"M0996","R\u00e9gion administrative":"Auvergne-Rh\u00f4ne-Alpes","D\u00e9partement":"Is\u00e8re","Commune":"Grenoble","Nom officiel du mus\u00e9e":"mus\u00e9e dauphinois","Adresse":"30 rue Maurice Gignoux","Code Postal":38031.0,"T\u00e9l\u00e9phone":"04 57 58 89 01","URL":"musees.isere.fr\/musee\/musee-dauphinois","Latitude":45.1951875353,"Longitude":5.7269445363,"REF_Deps":"3818502"},{"Identifiant Mus\u00e9ofile":"M1000","R\u00e9gion administrative":"Auvergne-Rh\u00f4ne-Alpes","D\u00e9partement":"Is\u00e8re","Commune":"L'Alpe-d'Huez","Nom officiel du mus\u00e9e":"maison du patrimoine de l'Oisans","Adresse":null,"Code Postal":38750.0,"T\u00e9l\u00e9phone":"04 76 11 21 74","URL":"www.alpedhuez.com\/fr\/hiver\/selections-apidae\/famille_plus-20167\/musee-dhuez-et-de-loisans\/","Latitude":45.087019,"Longitude":6.068988,"REF_Deps":"3819101"},{"Identifiant Mus\u00e9ofile":"M1003","R\u00e9gion administrative":"Auvergne-Rh\u00f4ne-Alpes","D\u00e9partement":"Is\u00e8re","Commune":"La Tronche","Nom officiel du mus\u00e9e":"mus\u00e9e H\u00e9bert - d'Uckermann","Adresse":"Chemin H\u00e9bert","Code Postal":38700.0,"T\u00e9l\u00e9phone":"04 76 42 46 12","URL":"musees.isere.fr\/musee\/musee-hebert","Latitude":45.205613,"Longitude":5.751334,"REF_Deps":"3851601"},{"Identifiant Mus\u00e9ofile":"M1004","R\u00e9gion administrative":"Auvergne-Rh\u00f4ne-Alpes","D\u00e9partement":"Is\u00e8re","Commune":"Saint-Pierre-de-Chartreuse","Nom officiel du mus\u00e9e":"mus\u00e9e de la Grande Chartreuse","Adresse":null,"Code Postal":38380.0,"T\u00e9l\u00e9phone":"04 76 88 65 01","URL":"www.musee-grande-chartreuse.fr\/fr\/","Latitude":45.341728,"Longitude":5.814737,"REF_Deps":"3844203"},{"Identifiant Mus\u00e9ofile":"M1005","R\u00e9gion administrative":"Auvergne-Rh\u00f4ne-Alpes","D\u00e9partement":"Is\u00e8re","Commune":"Vienne","Nom officiel du mus\u00e9e":"mus\u00e9e des beaux-arts et d'arch\u00e9ologie","Adresse":"place de Miremont","Code Postal":38200.0,"T\u00e9l\u00e9phone":"04 74 85 50 42","URL":"vienne.fr\/nos-services\/culture\/les-musees\/","Latitude":45.524069,"Longitude":4.87462,"REF_Deps":"3854403"},{"Identifiant Mus\u00e9ofile":"M1008","R\u00e9gion administrative":"Auvergne-Rh\u00f4ne-Alpes","D\u00e9partement":"Is\u00e8re","Commune":"Vizille","Nom officiel du mus\u00e9e":"mus\u00e9e d\u00e9partemental de la R\u00e9volution fran\u00e7aise","Adresse":"Domaine de Vizille","Code Postal":38220.0,"T\u00e9l\u00e9phone":"04 76 68 07 35","URL":"musees.isere.fr\/musee\/domaine-de-vizille-musee-de-la-revolution-francaise","Latitude":45.08753,"Longitude":5.773234,"REF_Deps":"3856201"},{"Identifiant Mus\u00e9ofile":"M1187","R\u00e9gion administrative":"Auvergne-Rh\u00f4ne-Alpes","D\u00e9partement":"Is\u00e8re","Commune":"Montferrat (Charavines)","Nom officiel du mus\u00e9e":"mus\u00e9e-parc arch\u00e9ologique du lac de Paladru","Adresse":"Place de l'\u00e9glise","Code Postal":38850.0,"T\u00e9l\u00e9phone":"04 76 55 77 47","URL":"www.paysvoironnais.info\/musee-archeologique-du-lac-de-paladru\/charavines\/musee.html#.YFtioJvjLZ4","Latitude":45.428526,"Longitude":5.51555,"REF_Deps":"3808201"},{"Identifiant Mus\u00e9ofile":"M1212","R\u00e9gion administrative":"Auvergne-Rh\u00f4ne-Alpes","D\u00e9partement":"Is\u00e8re","Commune":"Vif","Nom officiel du mus\u00e9e":"mus\u00e9e Champollion","Adresse":null,"Code Postal":38450.0,"T\u00e9l\u00e9phone":"04 57 58 88 50","URL":"https:\/\/musees.isere.fr\/","Latitude":45.050408,"Longitude":5.6692,"REF_Deps":null},{"Identifiant Mus\u00e9ofile":"M1013","R\u00e9gion administrative":"Auvergne-Rh\u00f4ne-Alpes","D\u00e9partement":"Loire","Commune":"Estivareilles","Nom officiel du mus\u00e9e":"mus\u00e9e de l'arm\u00e9e secr\u00e8te et de la r\u00e9sistance","Adresse":"456 route du mus\u00e9e","Code Postal":42380.0,"T\u00e9l\u00e9phone":"04 77 50 29 20","URL":"estivareilles42.fr\/2019\/04\/11\/le-musee\/","Latitude":45.415906,"Longitude":4.010414,"REF_Deps":"4209101"},{"Identifiant Mus\u00e9ofile":"M1020","R\u00e9gion administrative":"Auvergne-Rh\u00f4ne-Alpes","D\u00e9partement":"Loire","Commune":"Roanne","Nom officiel du mus\u00e9e":"mus\u00e9e Joseph D\u00e9chelette","Adresse":"22 rue Anatole France","Code Postal":42300.0,"T\u00e9l\u00e9phone":"04 77 23 68 77","URL":"www.museederoanne.fr\/musee-des-beaux-arts-et-d-archeologie-joseph-dechelette-site-officiel-2017.html","Latitude":46.034953,"Longitude":4.069842,"REF_Deps":"4218701"},{"Identifiant Mus\u00e9ofile":"M1023","R\u00e9gion administrative":"Auvergne-Rh\u00f4ne-Alpes","D\u00e9partement":"Loire","Commune":"Saint-Etienne","Nom officiel du mus\u00e9e":"mus\u00e9e d'art et d'industrie","Adresse":"2 Place Comte","Code Postal":42000.0,"T\u00e9l\u00e9phone":"04 77 49 73 00","URL":"www.musee-art-industrie.saint-etienne.fr\/","Latitude":45.431538,"Longitude":4.387485,"REF_Deps":"4221802"},{"Identifiant Mus\u00e9ofile":"M1024","R\u00e9gion administrative":"Auvergne-Rh\u00f4ne-Alpes","D\u00e9partement":"Loire","Commune":"Saint-Etienne","Nom officiel du mus\u00e9e":"mus\u00e9e d'art moderne et contemporain de Saint-Etienne M\u00e9tropole - mus\u00e9e d'art moderne","Adresse":"La Terrasse","Code Postal":42006.0,"T\u00e9l\u00e9phone":"04 77 79 52 52","URL":"mamc.saint-etienne.fr\/fr","Latitude":45.4696479352,"Longitude":4.3745268633,"REF_Deps":"4221801"},{"Identifiant Mus\u00e9ofile":"M1027","R\u00e9gion administrative":"Auvergne-Rh\u00f4ne-Alpes","D\u00e9partement":"Loire","Commune":"Saint-Germain-Laval","Nom officiel du mus\u00e9e":"mus\u00e9e municipal","Adresse":"place de l'H\u00f4tel de Ville","Code Postal":42260.0,"T\u00e9l\u00e9phone":"04 77 65 41 30","URL":null,"Latitude":45.830168,"Longitude":4.010608,"REF_Deps":"4223001"},{"Identifiant Mus\u00e9ofile":"M1012","R\u00e9gion administrative":"Auvergne-Rh\u00f4ne-Alpes","D\u00e9partement":"Loire","Commune":"Chazelles-sur-Lyon","Nom officiel du mus\u00e9e":"mus\u00e9e du chapeau","Adresse":"31 rue Martouret","Code Postal":42140.0,"T\u00e9l\u00e9phone":"04 77 94 23 29","URL":"www.museeduchapeau.com\/","Latitude":45.638304,"Longitude":4.394089,"REF_Deps":"4205901"},{"Identifiant Mus\u00e9ofile":"M1029","R\u00e9gion administrative":"Auvergne-Rh\u00f4ne-Alpes","D\u00e9partement":"Loire","Commune":"Usson-en-Forez","Nom officiel du mus\u00e9e":"mus\u00e9e rural","Adresse":"Quartier Saint-Joseph Place Alex Foll\u00e9as","Code Postal":42550.0,"T\u00e9l\u00e9phone":"04 77 50 67 97","URL":"www.ecomusee-usson-en-forez.fr\/","Latitude":45.392445,"Longitude":3.943885,"REF_Deps":"4231801"},{"Identifiant Mus\u00e9ofile":"M1009","R\u00e9gion administrative":"Auvergne-Rh\u00f4ne-Alpes","D\u00e9partement":"Loire","Commune":"Ambierle","Nom officiel du mus\u00e9e":"mus\u00e9e Alice Taverne","Adresse":"89 rue de la Grye","Code Postal":42820.0,"T\u00e9l\u00e9phone":"04 77 65 60 99","URL":"museealicetaverne.fr\/","Latitude":46.105434,"Longitude":3.896167,"REF_Deps":"4200301"},{"Identifiant Mus\u00e9ofile":"M1011","R\u00e9gion administrative":"Auvergne-Rh\u00f4ne-Alpes","D\u00e9partement":"Loire","Commune":"Charlieu","Nom officiel du mus\u00e9e":"mus\u00e9e hospitalier","Adresse":"9 boulevard du G\u00e9n\u00e9ral Leclerc","Code Postal":42190.0,"T\u00e9l\u00e9phone":"04 77 60 28 84","URL":"musees-de-charlieu.webnode.fr\/museehospitalier\/","Latitude":46.160301,"Longitude":4.17052,"REF_Deps":"4205203"},{"Identifiant Mus\u00e9ofile":"M1010","R\u00e9gion administrative":"Auvergne-Rh\u00f4ne-Alpes","D\u00e9partement":"Loire","Commune":"Charlieu","Nom officiel du mus\u00e9e":"mus\u00e9e de la soierie","Adresse":"9 Boulevard Leclerc","Code Postal":42190.0,"T\u00e9l\u00e9phone":"04 77 60 28 84","URL":"musees-de-charlieu.webnode.fr\/","Latitude":46.160301,"Longitude":4.17052,"REF_Deps":"4205202"},{"Identifiant Mus\u00e9ofile":"M1014","R\u00e9gion administrative":"Auvergne-Rh\u00f4ne-Alpes","D\u00e9partement":"Loire","Commune":"Feurs","Nom officiel du mus\u00e9e":"mus\u00e9e de Feurs","Adresse":"3 rue Victor de Laprade","Code Postal":42110.0,"T\u00e9l\u00e9phone":"04 77 26 24 48","URL":"www.feurs.org\/culture\/musee-d-archeologie.html","Latitude":45.744191,"Longitude":4.219803,"REF_Deps":"4209401"},{"Identifiant Mus\u00e9ofile":"M1017","R\u00e9gion administrative":"Auvergne-Rh\u00f4ne-Alpes","D\u00e9partement":"Loire","Commune":"Montbrison","Nom officiel du mus\u00e9e":"mus\u00e9e de la Diana","Adresse":"Rue Florimont Robertet","Code Postal":42600.0,"T\u00e9l\u00e9phone":"04 77 96 01 10","URL":"www.ladiana.com","Latitude":45.60543,"Longitude":4.066822,"REF_Deps":"4214702"},{"Identifiant Mus\u00e9ofile":"M1025","R\u00e9gion administrative":"Auvergne-Rh\u00f4ne-Alpes","D\u00e9partement":"Loire","Commune":"Saint-Etienne","Nom officiel du mus\u00e9e":"mus\u00e9e de la mine","Adresse":"3 Boulevard Franchet d'Esperey","Code Postal":42000.0,"T\u00e9l\u00e9phone":"04 77 43 83 23","URL":"www.musee-mine.saint-etienne.fr\/","Latitude":45.438944,"Longitude":4.376487,"REF_Deps":"4221804"},{"Identifiant Mus\u00e9ofile":"M1016","R\u00e9gion administrative":"Auvergne-Rh\u00f4ne-Alpes","D\u00e9partement":"Loire","Commune":"Montbrison","Nom officiel du mus\u00e9e":"mus\u00e9e d'Allard","Adresse":"13 boulevard de la Pr\u00e9fecture","Code Postal":42600.0,"T\u00e9l\u00e9phone":"04 77 96 39 15","URL":"www.ville-montbrison.fr\/annuaire\/musee-dallard\/","Latitude":45.608241,"Longitude":4.06195,"REF_Deps":"4214701"},{"Identifiant Mus\u00e9ofile":"M1018","R\u00e9gion administrative":"Auvergne-Rh\u00f4ne-Alpes","D\u00e9partement":"Loire","Commune":"Pommiers-en-Forez","Nom officiel du mus\u00e9e":"mus\u00e9e du vieux Pommiers","Adresse":"Vieux village","Code Postal":42260.0,"T\u00e9l\u00e9phone":"04 77 65 40 63","URL":null,"Latitude":45.830522,"Longitude":4.104776,"REF_Deps":"4217301"},{"Identifiant Mus\u00e9ofile":"M1026","R\u00e9gion administrative":"Auvergne-Rh\u00f4ne-Alpes","D\u00e9partement":"Loire","Commune":"Saint-Etienne-le-Molard","Nom officiel du mus\u00e9e":"ch\u00e2teau de la Bastie d'Urf\u00e9","Adresse":"1061 route de la B\u00e2tie d'Urf\u00e9","Code Postal":42130.0,"T\u00e9l\u00e9phone":"04 77 97 54 68","URL":"www.loire.fr\/jcms\/c_743949\/la-batie-d-urfe","Latitude":45.728472,"Longitude":4.078512,"REF_Deps":"4221901"},{"Identifiant Mus\u00e9ofile":"M1028","R\u00e9gion administrative":"Auvergne-Rh\u00f4ne-Alpes","D\u00e9partement":"Loire","Commune":"Saint-Just-Saint-Rambert","Nom officiel du mus\u00e9e":"mus\u00e9e des civilisations : Daniel Pouget","Adresse":"Place Madeleine Rousseau","Code Postal":42170.0,"T\u00e9l\u00e9phone":"04 77 52 03 11","URL":"www.stjust-strambert.fr\/sorties-et-loisirs\/culture-et-evenements\/musee-des-civilisations-daniel-pouget\/","Latitude":45.500657,"Longitude":4.242057,"REF_Deps":"4227901"},{"Identifiant Mus\u00e9ofile":"M0128","R\u00e9gion administrative":"Auvergne-Rh\u00f4ne-Alpes","D\u00e9partement":"Puy-de-D\u00f4me","Commune":"Riom","Nom officiel du mus\u00e9e":"mus\u00e9e r\u00e9gional d'Auvergne","Adresse":"10 bis rue Delille","Code Postal":63200.0,"T\u00e9l\u00e9phone":"04 73 38 17 31","URL":"www.rlv.eu\/decouvrir\/musees\/musee-regional-d-auvergne.html","Latitude":45.895037,"Longitude":3.116254,"REF_Deps":"6330003"},{"Identifiant Mus\u00e9ofile":"M0130","R\u00e9gion administrative":"Auvergne-Rh\u00f4ne-Alpes","D\u00e9partement":"Puy-de-D\u00f4me","Commune":"Volvic","Nom officiel du mus\u00e9e":"mus\u00e9e Marcel Sahut","Adresse":"2 rue des Ecoles","Code Postal":63530.0,"T\u00e9l\u00e9phone":"04 73 33 57 33","URL":"www.ville-volvic.fr\/musee-marcel-sahut","Latitude":45.872614,"Longitude":3.038881,"REF_Deps":"6347001"},{"Identifiant Mus\u00e9ofile":"M0121","R\u00e9gion administrative":"Auvergne-Rh\u00f4ne-Alpes","D\u00e9partement":"Puy-de-D\u00f4me","Commune":"Clermont-Ferrand","Nom officiel du mus\u00e9e":"mus\u00e9e d'art Roger-Quillot","Adresse":"Place Louis Deteix","Code Postal":63100.0,"T\u00e9l\u00e9phone":"04 43 76 25 25","URL":"www.clermontmetropole.eu\/bouger-se-divertir\/le-dynamisme-culturel\/les-musees-de-clermont-auvergne-metropole\/marq-musee-dart-roger-quilliot\/","Latitude":45.793027,"Longitude":3.07827,"REF_Deps":"6311305"},{"Identifiant Mus\u00e9ofile":"M0123","R\u00e9gion administrative":"Auvergne-Rh\u00f4ne-Alpes","D\u00e9partement":"Puy-de-D\u00f4me","Commune":"Lezoux","Nom officiel du mus\u00e9e":"mus\u00e9e de c\u00e9ramique gallo-romaine","Adresse":"39, rue de la R\u00e9publique","Code Postal":63190.0,"T\u00e9l\u00e9phone":"473734242","URL":"musee-ceramique.puy-de-dome.fr\/le-musee.html","Latitude":45.827628,"Longitude":3.383654,"REF_Deps":"6319501"},{"Identifiant Mus\u00e9ofile":"M0124","R\u00e9gion administrative":"Auvergne-Rh\u00f4ne-Alpes","D\u00e9partement":"Puy-de-D\u00f4me","Commune":"Marsac-en-Livradois","Nom officiel du mus\u00e9e":"mus\u00e9e des p\u00e9nitents blancs","Adresse":"place de l'Eglise","Code Postal":63940.0,"T\u00e9l\u00e9phone":"04  73 95 60 08","URL":"www.vacances-livradois-forez.com\/patrimoine-culturel\/chapelle-musee-des-penitents-blancs-marsac-en-livradois\/","Latitude":45.478967,"Longitude":3.728534,"REF_Deps":"6321101"},{"Identifiant Mus\u00e9ofile":"M0126","R\u00e9gion administrative":"Auvergne-Rh\u00f4ne-Alpes","D\u00e9partement":"Puy-de-D\u00f4me","Commune":"Murol","Nom officiel du mus\u00e9e":"mus\u00e9e municipal","Adresse":"Ch\u00e2teau de Murol","Code Postal":63790.0,"T\u00e9l\u00e9phone":"04 73 88 67 10","URL":"murolchateau.com\/","Latitude":45.590429,"Longitude":2.921508,"REF_Deps":"6324701"},{"Identifiant Mus\u00e9ofile":"M0127","R\u00e9gion administrative":"Auvergne-Rh\u00f4ne-Alpes","D\u00e9partement":"Puy-de-D\u00f4me","Commune":"Riom","Nom officiel du mus\u00e9e":"mus\u00e9e Francisque Mandet","Adresse":"14, rue de l'H\u00f4tel de ville","Code Postal":63200.0,"T\u00e9l\u00e9phone":"04 73 38 18 53","URL":"www.rlv.eu\/decouvrir\/musees\/musee-mandet.html","Latitude":45.893874,"Longitude":3.116508,"REF_Deps":"6330002"},{"Identifiant Mus\u00e9ofile":"M0129","R\u00e9gion administrative":"Auvergne-Rh\u00f4ne-Alpes","D\u00e9partement":"Puy-de-D\u00f4me","Commune":"Thiers","Nom officiel du mus\u00e9e":"mus\u00e9e municipal de la coutellerie","Adresse":"58 rue de la Coutellerie","Code Postal":63300.0,"T\u00e9l\u00e9phone":"04 73 80 58 86","URL":"ville-thiers.fr\/le-musee-de-la-coutellerie\/","Latitude":45.852318,"Longitude":3.548029,"REF_Deps":"6343001"},{"Identifiant Mus\u00e9ofile":"M0125","R\u00e9gion administrative":"Auvergne-Rh\u00f4ne-Alpes","D\u00e9partement":"Puy-de-D\u00f4me","Commune":"Mozac","Nom officiel du mus\u00e9e":"mus\u00e9e lapidaire","Adresse":"place de l'Abbaye","Code Postal":63200.0,"T\u00e9l\u00e9phone":"04 73 38 18 53","URL":"www.ville-mozac.com\/La-crypte-et-le-musee-lapidaire.html","Latitude":45.892133,"Longitude":3.094609,"REF_Deps":"6324501"},{"Identifiant Mus\u00e9ofile":"M7032","R\u00e9gion administrative":"Auvergne-Rh\u00f4ne-Alpes","D\u00e9partement":"Puy-de-D\u00f4me","Commune":"Clermont-Ferrand","Nom officiel du mus\u00e9e":"mus\u00e9um d'histoire naturelle Lecoq","Adresse":"15, rue Bardoux","Code Postal":63000.0,"T\u00e9l\u00e9phone":"04 43 76 25 60","URL":"www.clermontmetropole.eu\/bouger-se-divertir\/le-dynamisme-culturel\/les-musees-de-clermont-auvergne-metropole\/museum-henri-lecoq\/","Latitude":45.774138,"Longitude":3.088299,"REF_Deps":"6311303"},{"Identifiant Mus\u00e9ofile":"M7045","R\u00e9gion administrative":"Auvergne-Rh\u00f4ne-Alpes","D\u00e9partement":"Puy-de-D\u00f4me","Commune":"Menat","Nom officiel du mus\u00e9e":"mus\u00e9e pal\u00e9ontologique","Adresse":"Place de la Mairie","Code Postal":63560.0,"T\u00e9l\u00e9phone":"04 73 85 54 62","URL":"www.menat.fr\/spip.php?article29","Latitude":46.103652,"Longitude":2.904431,"REF_Deps":"6322301"},{"Identifiant Mus\u00e9ofile":"M0119","R\u00e9gion administrative":"Auvergne-Rh\u00f4ne-Alpes","D\u00e9partement":"Puy-de-D\u00f4me","Commune":"Arlanc","Nom officiel du mus\u00e9e":"mus\u00e9e de la dentelle","Adresse":"53 route nationale","Code Postal":63220.0,"T\u00e9l\u00e9phone":"04 73 95 00 03","URL":"arlanc.fr\/accueil\/20-le-musee-de-la-dentelle.html","Latitude":45.414373,"Longitude":3.724421,"REF_Deps":"6301001"},{"Identifiant Mus\u00e9ofile":"M0120","R\u00e9gion administrative":"Auvergne-Rh\u00f4ne-Alpes","D\u00e9partement":"Puy-de-D\u00f4me","Commune":"Clermont-Ferrand","Nom officiel du mus\u00e9e":"mus\u00e9e Bargoin","Adresse":"45, rue Ballainvilliers","Code Postal":63000.0,"T\u00e9l\u00e9phone":"04.43.76.25.50","URL":"www.clermontmetropole.eu\/bouger-se-divertir\/le-dynamisme-culturel\/les-musees-de-clermont-auvergne-metropole\/musee-bargoin\/","Latitude":45.774229,"Longitude":3.0869,"REF_Deps":"6311301"},{"Identifiant Mus\u00e9ofile":"M1031","R\u00e9gion administrative":"Auvergne-Rh\u00f4ne-Alpes","D\u00e9partement":"Rh\u00f4ne","Commune":"Lyon","Nom officiel du mus\u00e9e":"mus\u00e9e des beaux-arts","Adresse":"20 place des Terreaux","Code Postal":69001.0,"T\u00e9l\u00e9phone":"04 72 10 17 40","URL":"www.mba-lyon.fr\/fr","Latitude":45.767177,"Longitude":4.833576,"REF_Deps":"6938102"},{"Identifiant Mus\u00e9ofile":"M1032","R\u00e9gion administrative":"Auvergne-Rh\u00f4ne-Alpes","D\u00e9partement":"Rh\u00f4ne","Commune":"Lyon","Nom officiel du mus\u00e9e":"mus\u00e9e Gadagne","Adresse":"1 place du Petit Coll\u00e8ge","Code Postal":69005.0,"T\u00e9l\u00e9phone":"04 78 42 03 61","URL":"www.gadagne-lyon.fr\/","Latitude":45.763856,"Longitude":4.827749,"REF_Deps":"6938501"},{"Identifiant Mus\u00e9ofile":"M1034","R\u00e9gion administrative":"Auvergne-Rh\u00f4ne-Alpes","D\u00e9partement":"Rh\u00f4ne","Commune":"Lyon","Nom officiel du mus\u00e9e":"centre d'histoire de la r\u00e9sistance","Adresse":"14 avenue Berthelot","Code Postal":69007.0,"T\u00e9l\u00e9phone":"04 78 72 23 11","URL":"www.chrd.lyon.fr\/","Latitude":45.747037,"Longitude":4.835797,"REF_Deps":"6938701"},{"Identifiant Mus\u00e9ofile":"M1036","R\u00e9gion administrative":"Auvergne-Rh\u00f4ne-Alpes","D\u00e9partement":"Rh\u00f4ne","Commune":"Lyon","Nom officiel du mus\u00e9e":"Lugdunum, mus\u00e9e et th\u00e9\u00e2tres romains","Adresse":"17 rue Cl\u00e9berg","Code Postal":69005.0,"T\u00e9l\u00e9phone":"04 72 38 49 30","URL":"lugdunum.grandlyon.com\/fr\/","Latitude":45.760529,"Longitude":4.82004,"REF_Deps":"6938502"},{"Identifiant Mus\u00e9ofile":"M1038","R\u00e9gion administrative":"Auvergne-Rh\u00f4ne-Alpes","D\u00e9partement":"Rh\u00f4ne","Commune":"Lyon","Nom officiel du mus\u00e9e":"mus\u00e9e historique des tissus","Adresse":"34, rue de la Charit\u00e9","Code Postal":69002.0,"T\u00e9l\u00e9phone":"04 78 38 42 07","URL":"www.museedestissus.fr\/","Latitude":45.753117,"Longitude":4.831633,"REF_Deps":"6912301"},{"Identifiant Mus\u00e9ofile":"M1039","R\u00e9gion administrative":"Auvergne-Rh\u00f4ne-Alpes","D\u00e9partement":"Rh\u00f4ne","Commune":"Lyon","Nom officiel du mus\u00e9e":"mus\u00e9e des hospices civils de Lyon","Adresse":"3 quai des C\u00e9lestins","Code Postal":69002.0,"T\u00e9l\u00e9phone":"07.89.87.01.85 \/ 04.72.40.75.74","URL":"www.chu-lyon.fr\/fr\/musee-des-hcl","Latitude":45.760912,"Longitude":4.831492,"REF_Deps":"6938201"},{"Identifiant Mus\u00e9ofile":"M1040","R\u00e9gion administrative":"Auvergne-Rh\u00f4ne-Alpes","D\u00e9partement":"Rh\u00f4ne","Commune":"Rochetaille-sur-Sa\u00f4ne","Nom officiel du mus\u00e9e":"mus\u00e9e Henri Malartre","Adresse":"645 rue du Mus\u00e9e 69270 Rochetaill\u00e9e sur Sa\u00f4ne","Code Postal":69270.0,"T\u00e9l\u00e9phone":"04 78 22 18 80","URL":"www.musee-malartre.com","Latitude":45.84492,"Longitude":4.837207,"REF_Deps":"6916801"},{"Identifiant Mus\u00e9ofile":"M1140","R\u00e9gion administrative":"Auvergne-Rh\u00f4ne-Alpes","D\u00e9partement":"Rh\u00f4ne","Commune":"Amplepuis","Nom officiel du mus\u00e9e":"mus\u00e9e Barth\u00e9lemy-Thimonier","Adresse":"Place de l'H\u00f4tel de Ville","Code Postal":69550.0,"T\u00e9l\u00e9phone":"04 74 89 08 90","URL":"musees.ouestrhodanien.fr\/musee-barthelemy-thimonnier.html","Latitude":45.972502,"Longitude":4.331417,"REF_Deps":"6900601"},{"Identifiant Mus\u00e9ofile":"M7042","R\u00e9gion administrative":"Auvergne-Rh\u00f4ne-Alpes","D\u00e9partement":"Rh\u00f4ne","Commune":"Lyon","Nom officiel du mus\u00e9e":"mus\u00e9e des Confluences","Adresse":"86 quai Perrache","Code Postal":69002.0,"T\u00e9l\u00e9phone":"04 28 38 11 90","URL":"www.museedesconfluences.fr\/","Latitude":45.73319,"Longitude":4.818042,"REF_Deps":"6938603"},{"Identifiant Mus\u00e9ofile":"M1033","R\u00e9gion administrative":"Auvergne-Rh\u00f4ne-Alpes","D\u00e9partement":"Rh\u00f4ne","Commune":"Lyon","Nom officiel du mus\u00e9e":"mus\u00e9e d'art contemporain","Adresse":"quai Charles de Gaulle","Code Postal":69006.0,"T\u00e9l\u00e9phone":"04 72 69 17 17","URL":"www.mac-lyon.com\/fr","Latitude":45.784864,"Longitude":4.852921,"REF_Deps":"6938101"},{"Identifiant Mus\u00e9ofile":"M1128","R\u00e9gion administrative":"Auvergne-Rh\u00f4ne-Alpes","D\u00e9partement":"Rh\u00f4ne","Commune":"Lyon","Nom officiel du mus\u00e9e":"mus\u00e9e des sapeurs-pompiers de Lyon","Adresse":"358 avenue de Champagne","Code Postal":69009.0,"T\u00e9l\u00e9phone":"04 72 17 54 54","URL":"museepompiers.com\/","Latitude":45.790491,"Longitude":4.797411,"REF_Deps":"6938901"},{"Identifiant Mus\u00e9ofile":"M1127","R\u00e9gion administrative":"Auvergne-Rh\u00f4ne-Alpes","D\u00e9partement":"Rh\u00f4ne","Commune":"Lyon","Nom officiel du mus\u00e9e":"mus\u00e9e de l'imprimerie et de la communication graphique","Adresse":"13 rue de la Poulaillerie","Code Postal":69002.0,"T\u00e9l\u00e9phone":"04 78 37 65 98","URL":"www.imprimerie.lyon.fr\/fr","Latitude":45.764219,"Longitude":4.834752,"REF_Deps":"6912304"},{"Identifiant Mus\u00e9ofile":"M7042","R\u00e9gion administrative":"Auvergne-Rh\u00f4ne-Alpes","D\u00e9partement":"Rh\u00f4ne","Commune":"Lyon","Nom officiel du mus\u00e9e":"mus\u00e9e Guimet","Adresse":"86 quai Perrache","Code Postal":69002.0,"T\u00e9l\u00e9phone":"04 28 38 11 90","URL":"www.museedesconfluences.fr\/","Latitude":45.73319,"Longitude":4.818042,"REF_Deps":"6938603"},{"Identifiant Mus\u00e9ofile":"M1030","R\u00e9gion administrative":"Auvergne-Rh\u00f4ne-Alpes","D\u00e9partement":"Rh\u00f4ne","Commune":"Beaujeu","Nom officiel du mus\u00e9e":"mus\u00e9e folklorique et des traditions populaires","Adresse":"Place de l'H\u00f4tel de Ville","Code Postal":69430.0,"T\u00e9l\u00e9phone":"04 74 69 22 88","URL":"beaujeu.reseaudesvilles.fr\/fr\/information\/97744\/musee-marius-audin","Latitude":46.154524,"Longitude":4.587482,"REF_Deps":"6901801"},{"Identifiant Mus\u00e9ofile":"M1037","R\u00e9gion administrative":"Auvergne-Rh\u00f4ne-Alpes","D\u00e9partement":"Rh\u00f4ne","Commune":"Lyon","Nom officiel du mus\u00e9e":"mus\u00e9e des arts d\u00e9coratifs","Adresse":"34 rue de la charit\u00e9","Code Postal":69002.0,"T\u00e9l\u00e9phone":null,"URL":"www.museedestissus.fr\/","Latitude":45.75342,"Longitude":4.83153,"REF_Deps":null},{"Identifiant Mus\u00e9ofile":"M1041","R\u00e9gion administrative":"Auvergne-Rh\u00f4ne-Alpes","D\u00e9partement":"Rh\u00f4ne","Commune":"Villefranche-sur-Sa\u00f4ne","Nom officiel du mus\u00e9e":"mus\u00e9e Paul Dini","Adresse":"2 Place Faubert","Code Postal":69400.0,"T\u00e9l\u00e9phone":"474683370","URL":"musee-paul-dini.com\/","Latitude":45.990936,"Longitude":4.721527,"REF_Deps":"6926401"},{"Identifiant Mus\u00e9ofile":"M1156","R\u00e9gion administrative":"Auvergne-Rh\u00f4ne-Alpes","D\u00e9partement":"Rh\u00f4ne","Commune":"Saint-Romain-en-Gal","Nom officiel du mus\u00e9e":"mus\u00e9e arch\u00e9ologique","Adresse":"RD 502","Code Postal":69483.0,"T\u00e9l\u00e9phone":"04 74 53 74 01","URL":"musee-site.rhone.fr\/","Latitude":45.5295563268,"Longitude":4.8731588395,"REF_Deps":"6923501"},{"Identifiant Mus\u00e9ofile":"M1185","R\u00e9gion administrative":"Auvergne-Rh\u00f4ne-Alpes","D\u00e9partement":"Rh\u00f4ne","Commune":"Marnand","Nom officiel du mus\u00e9e":"\u00e9comus\u00e9e du Haut Beaujolais","Adresse":"570 chemin des pierres plant\u00e9es","Code Postal":69240.0,"T\u00e9l\u00e9phone":"04 74 64 06 48","URL":"musees.ouestrhodanien.fr\/ecomusee-du-haut-beaujolais.html","Latitude":46.037849,"Longitude":4.315548,"REF_Deps":"6924801"},{"Identifiant Mus\u00e9ofile":"M7042","R\u00e9gion administrative":"Auvergne-Rh\u00f4ne-Alpes","D\u00e9partement":"Rh\u00f4ne","Commune":"Lyon","Nom officiel du mus\u00e9e":"mus\u00e9um d'histoire naturelle","Adresse":"86 quai Perrache","Code Postal":69002.0,"T\u00e9l\u00e9phone":"04 28 38 11 90","URL":"www.museedesconfluences.fr\/","Latitude":45.73319,"Longitude":4.818042,"REF_Deps":"6938603"},{"Identifiant Mus\u00e9ofile":"M1046","R\u00e9gion administrative":"Auvergne-Rh\u00f4ne-Alpes","D\u00e9partement":"Savoie","Commune":"Albertville","Nom officiel du mus\u00e9e":"mus\u00e9e municipal d'Albertville-Conflans","Adresse":"Grande place Conflans","Code Postal":73200.0,"T\u00e9l\u00e9phone":"04 79 37 86 86","URL":"www.albertville.fr\/culture\/musee-art-histoire\/","Latitude":45.670787,"Longitude":6.397471,"REF_Deps":"7301101"},{"Identifiant Mus\u00e9ofile":"M1047","R\u00e9gion administrative":"Auvergne-Rh\u00f4ne-Alpes","D\u00e9partement":"Savoie","Commune":"Bourg-Saint-Maurice","Nom officiel du mus\u00e9e":"mus\u00e9e du costume","Adresse":"Hauteville-Gondon","Code Postal":73700.0,"T\u00e9l\u00e9phone":"04 79 07 23 33","URL":null,"Latitude":45.597053,"Longitude":6.760997,"REF_Deps":"7305401"},{"Identifiant Mus\u00e9ofile":"M1048","R\u00e9gion administrative":"Auvergne-Rh\u00f4ne-Alpes","D\u00e9partement":"Savoie","Commune":"Chamb\u00e9ry","Nom officiel du mus\u00e9e":"mus\u00e9e des beaux-arts","Adresse":"place du Palais de Justice","Code Postal":73000.0,"T\u00e9l\u00e9phone":"04 79 33 75 03","URL":"www.chambery.fr\/88-les-musees.htm","Latitude":45.567896,"Longitude":5.919306,"REF_Deps":"7306501"},{"Identifiant Mus\u00e9ofile":"M1050","R\u00e9gion administrative":"Auvergne-Rh\u00f4ne-Alpes","D\u00e9partement":"Savoie","Commune":"Chamb\u00e9ry","Nom officiel du mus\u00e9e":"mus\u00e9e Savoisien","Adresse":"Square de Lannoy de Bissy","Code Postal":73000.0,"T\u00e9l\u00e9phone":"04 79 33 44 48","URL":"www.savoie.fr\/web\/sw_64583\/le-musee-savoisien-poursuit-sa-renovation","Latitude":45.571174,"Longitude":5.875158,"REF_Deps":"7306502"},{"Identifiant Mus\u00e9ofile":"M1051","R\u00e9gion administrative":"Auvergne-Rh\u00f4ne-Alpes","D\u00e9partement":"Savoie","Commune":"Mo\u00fbtiers","Nom officiel du mus\u00e9e":"mus\u00e9e de l'acad\u00e9mie de la Val d'Is\u00e8re","Adresse":"23 place Saint-Pierre","Code Postal":73600.0,"T\u00e9l\u00e9phone":"04 79 24 04 23","URL":"academie.sup.fr\/","Latitude":45.483424,"Longitude":6.532778,"REF_Deps":"7318101"},{"Identifiant Mus\u00e9ofile":"M1044","R\u00e9gion administrative":"Auvergne-Rh\u00f4ne-Alpes","D\u00e9partement":"Savoie","Commune":"Aix-les-Bains","Nom officiel du mus\u00e9e":"mus\u00e9e arch\u00e9ologique","Adresse":"Place Maurice Mollard","Code Postal":73103.0,"T\u00e9l\u00e9phone":"04 79 61 06 57","URL":null,"Latitude":45.688633826,"Longitude":5.9156009252,"REF_Deps":"7300802"},{"Identifiant Mus\u00e9ofile":"M1049","R\u00e9gion administrative":"Auvergne-Rh\u00f4ne-Alpes","D\u00e9partement":"Savoie","Commune":"Chamb\u00e9ry","Nom officiel du mus\u00e9e":"mus\u00e9e des Charmettes","Adresse":"890 Chemin des Charmettes","Code Postal":73000.0,"T\u00e9l\u00e9phone":"04 79 33 39 44","URL":"www.chambery.fr\/302-les-charmettes.htm","Latitude":45.552732,"Longitude":5.93011,"REF_Deps":"7306503"},{"Identifiant Mus\u00e9ofile":"M7029","R\u00e9gion administrative":"Auvergne-Rh\u00f4ne-Alpes","D\u00e9partement":"Savoie","Commune":"Chamb\u00e9ry","Nom officiel du mus\u00e9e":"mus\u00e9um d'histoire naturelle","Adresse":"208 avenue de Lyon","Code Postal":73000.0,"T\u00e9l\u00e9phone":"04 79 33 39 44","URL":null,"Latitude":45.563911,"Longitude":5.916266,"REF_Deps":"7306504"},{"Identifiant Mus\u00e9ofile":"M1043","R\u00e9gion administrative":"Auvergne-Rh\u00f4ne-Alpes","D\u00e9partement":"Savoie","Commune":"Aime-en-Tarentaise","Nom officiel du mus\u00e9e":"mus\u00e9e arch\u00e9ologique et min\u00e9ralogique Pierre Borrione","Adresse":"Mont\u00e9e de Saint Sigismond - Aime","Code Postal":73210.0,"T\u00e9l\u00e9phone":"04 79 55 67 00","URL":"www.la-plagne.com\/decouvrir-la-plagne\/le-patrimoine\/histoire-locale\/savoir-faire-histoire-locale\/des-pierres-et-des-hommes-espace-archeologique-pierre-borrione","Latitude":45.559416,"Longitude":6.651415,"REF_Deps":"7300601"},{"Identifiant Mus\u00e9ofile":"M1045","R\u00e9gion administrative":"Auvergne-Rh\u00f4ne-Alpes","D\u00e9partement":"Savoie","Commune":"Aix-les-Bains","Nom officiel du mus\u00e9e":"mus\u00e9e du docteur Faure","Adresse":"10 boulevard des C\u00f4tes","Code Postal":73100.0,"T\u00e9l\u00e9phone":"04 79 61 06 57","URL":"www.aixlesbains.fr\/fre\/culture\/museefaure","Latitude":45.692157,"Longitude":5.915578,"REF_Deps":"7300801"},{"Identifiant Mus\u00e9ofile":"M0131","R\u00e9gion administrative":"Bourgogne-Franche-Comt\u00e9","D\u00e9partement":"C\u00f4te-d'Or","Commune":"Alise-Sainte-Reine","Nom officiel du mus\u00e9e":"mus\u00e9e Al\u00e9sia - centre d'interpr\u00e9tation","Adresse":"1 route des Trois Ormeaux","Code Postal":21150.0,"T\u00e9l\u00e9phone":"03 80 96 96 23","URL":"www.alesia.com\/","Latitude":47.536592,"Longitude":4.469595,"REF_Deps":"2100801"},{"Identifiant Mus\u00e9ofile":"M0133","R\u00e9gion administrative":"Bourgogne-Franche-Comt\u00e9","D\u00e9partement":"C\u00f4te-d'Or","Commune":"Beaune","Nom officiel du mus\u00e9e":"mus\u00e9e du vin de Bourgogne","Adresse":"Rue d'Enfer - Rue Paradis","Code Postal":21200.0,"T\u00e9l\u00e9phone":"03 80 22 08 19","URL":"www.beaune.fr\/spip.php?rubrique171","Latitude":47.023618,"Longitude":4.837574,"REF_Deps":"2105401"},{"Identifiant Mus\u00e9ofile":"M0135","R\u00e9gion administrative":"Bourgogne-Franche-Comt\u00e9","D\u00e9partement":"C\u00f4te-d'Or","Commune":"Buffon","Nom officiel du mus\u00e9e":"mus\u00e9e de la sid\u00e9rurgie en Bourgogne du Nord","Adresse":"La Grande Forge","Code Postal":21500.0,"T\u00e9l\u00e9phone":"03 80 92 10 35","URL":"www.grandeforgedebuffon.fr\/","Latitude":47.649485,"Longitude":4.260891,"REF_Deps":"2111401"},{"Identifiant Mus\u00e9ofile":"M0137","R\u00e9gion administrative":"Bourgogne-Franche-Comt\u00e9","D\u00e9partement":"C\u00f4te-d'Or","Commune":"Dijon","Nom officiel du mus\u00e9e":"mus\u00e9e des beaux-arts","Adresse":"1 place de la Ste Chapelle","Code Postal":21000.0,"T\u00e9l\u00e9phone":"03 80 74 52 09","URL":"beaux-arts.dijon.fr\/","Latitude":47.321356,"Longitude":5.042873,"REF_Deps":"2123104"},{"Identifiant Mus\u00e9ofile":"M0147","R\u00e9gion administrative":"Bourgogne-Franche-Comt\u00e9","D\u00e9partement":"C\u00f4te-d'Or","Commune":"Semur-en-Auxois","Nom officiel du mus\u00e9e":"mus\u00e9e municipal","Adresse":"3 Rue Jean-Jacques Collenot","Code Postal":21140.0,"T\u00e9l\u00e9phone":"03 80 97 24 25","URL":"www.facebook.com\/museedesemurenauxois\/","Latitude":47.490137,"Longitude":4.336452,"REF_Deps":"2160301"},{"Identifiant Mus\u00e9ofile":"M1208","R\u00e9gion administrative":"Bourgogne-Franche-Comt\u00e9","D\u00e9partement":"C\u00f4te-d'Or","Commune":"Dijon","Nom officiel du mus\u00e9e":"mus\u00e9e d'art sacr\u00e9","Adresse":"15 rue Sainte-Anne","Code Postal":21000.0,"T\u00e9l\u00e9phone":"03 80 48 80 90","URL":"www.dijon.fr\/Sortir-Bouger\/Musees-Galerie-d-arts-et-expositions\/Le-musee-d-art-sacre","Latitude":47.317559,"Longitude":5.037282,"REF_Deps":"2123107"},{"Identifiant Mus\u00e9ofile":"M7035","R\u00e9gion administrative":"Bourgogne-Franche-Comt\u00e9","D\u00e9partement":"C\u00f4te-d'Or","Commune":"Dijon","Nom officiel du mus\u00e9e":"mus\u00e9um d'histoire naturelle","Adresse":"Parc de l'Arquebuse 1 avenue Albert 1er et 14 rue Jehan de Marville","Code Postal":21000.0,"T\u00e9l\u00e9phone":"03 80 48 82 00","URL":"dijon.fr\/Sortir-Bouger\/Musees-Galerie-d-arts-et-expositions\/Le-museum","Latitude":47.322357,"Longitude":5.025636,"REF_Deps":"2123105"},{"Identifiant Mus\u00e9ofile":"M0134","R\u00e9gion administrative":"Bourgogne-Franche-Comt\u00e9","D\u00e9partement":"C\u00f4te-d'Or","Commune":"Beaune","Nom officiel du mus\u00e9e":"mus\u00e9e des beaux-arts","Adresse":"6 boulevard Perpreuil - 19 rue Poterne","Code Postal":21200.0,"T\u00e9l\u00e9phone":"03 80 24 98 70","URL":"www.beaune.fr\/culture-et-loisirs\/musees\/musee-des-beaux-arts\/","Latitude":47.02097,"Longitude":4.839393,"REF_Deps":"2105402"},{"Identifiant Mus\u00e9ofile":"M0143","R\u00e9gion administrative":"Bourgogne-Franche-Comt\u00e9","D\u00e9partement":"C\u00f4te-d'Or","Commune":"Montbard","Nom officiel du mus\u00e9e":"mus\u00e9e Buffon","Adresse":"rue du Parc Buffon","Code Postal":21506.0,"T\u00e9l\u00e9phone":"03 80 92 50 42","URL":"www.musee-parc-buffon.fr\/","Latitude":47.6257858811,"Longitude":4.3369859364,"REF_Deps":"2142501"},{"Identifiant Mus\u00e9ofile":"M0136","R\u00e9gion administrative":"Bourgogne-Franche-Comt\u00e9","D\u00e9partement":"C\u00f4te-d'Or","Commune":"Chatillon-sur-Seine","Nom officiel du mus\u00e9e":"mus\u00e9e du Ch\u00e2tillonnais","Adresse":"14 Rue de la Lib\u00e9ration","Code Postal":21400.0,"T\u00e9l\u00e9phone":"03 80 91 24 67","URL":"www.musee-vix.fr\/fr\/","Latitude":47.863791,"Longitude":4.574632,"REF_Deps":"2115401"},{"Identifiant Mus\u00e9ofile":"M0139","R\u00e9gion administrative":"Bourgogne-Franche-Comt\u00e9","D\u00e9partement":"C\u00f4te-d'Or","Commune":"Dijon","Nom officiel du mus\u00e9e":"mus\u00e9e de la vie bourguignonne","Adresse":"17 rue Sainte-Anne","Code Postal":21000.0,"T\u00e9l\u00e9phone":"03 80 48 80 90","URL":"vie-bourguignonne.dijon.fr\/","Latitude":47.317415,"Longitude":5.037131,"REF_Deps":"2123106"},{"Identifiant Mus\u00e9ofile":"M0141","R\u00e9gion administrative":"Bourgogne-Franche-Comt\u00e9","D\u00e9partement":"C\u00f4te-d'Or","Commune":"Fixin","Nom officiel du mus\u00e9e":"mus\u00e9e Noisot","Adresse":"Parc Noisot","Code Postal":21220.0,"T\u00e9l\u00e9phone":"03 80 52 45 52","URL":"www.mairiedefixin.fr\/musee-noisot","Latitude":47.245363,"Longitude":4.962515,"REF_Deps":"2126501"},{"Identifiant Mus\u00e9ofile":"M0146","R\u00e9gion administrative":"Bourgogne-Franche-Comt\u00e9","D\u00e9partement":"C\u00f4te-d'Or","Commune":"Saulieu","Nom officiel du mus\u00e9e":"mus\u00e9e Fran\u00e7ois Pompon","Adresse":"3, place du docteur Roclore","Code Postal":21210.0,"T\u00e9l\u00e9phone":"03 80 64 19 51","URL":"saulieu.fr\/musee-francois-pompon\/#pompon","Latitude":47.279459,"Longitude":4.229714,"REF_Deps":"2158401"},{"Identifiant Mus\u00e9ofile":"M0140","R\u00e9gion administrative":"Bourgogne-Franche-Comt\u00e9","D\u00e9partement":"C\u00f4te-d'Or","Commune":"Dijon","Nom officiel du mus\u00e9e":"mus\u00e9e Rude","Adresse":"8, rue Vaillant","Code Postal":21000.0,"T\u00e9l\u00e9phone":"03 80 74 52 09","URL":"beaux-arts.dijon.fr\/","Latitude":47.32122,"Longitude":5.043978,"REF_Deps":"2123101"},{"Identifiant Mus\u00e9ofile":"M1206","R\u00e9gion administrative":"Bourgogne-Franche-Comt\u00e9","D\u00e9partement":"C\u00f4te-d'Or","Commune":"Beaune","Nom officiel du mus\u00e9e":"mus\u00e9e Marey","Adresse":"6 boulevard Perpreuil - 19 rue Poterne","Code Postal":21200.0,"T\u00e9l\u00e9phone":"03 80 24 56 92","URL":null,"Latitude":47.02097,"Longitude":4.839393,"REF_Deps":"2105404"},{"Identifiant Mus\u00e9ofile":"M5011","R\u00e9gion administrative":"Bourgogne-Franche-Comt\u00e9","D\u00e9partement":"C\u00f4te-d'Or","Commune":"Dijon","Nom officiel du mus\u00e9e":"mus\u00e9e national Magnin","Adresse":"4, rue des Bons-Enfants","Code Postal":21000.0,"T\u00e9l\u00e9phone":"03 80 67 11 10","URL":"\/musee-magnin.fr\/","Latitude":47.320958,"Longitude":5.042189,"REF_Deps":"2123103"},{"Identifiant Mus\u00e9ofile":"M0132","R\u00e9gion administrative":"Bourgogne-Franche-Comt\u00e9","D\u00e9partement":"C\u00f4te-d'Or","Commune":"Auxonne","Nom officiel du mus\u00e9e":"mus\u00e9e Bonaparte","Adresse":"Rue du Ch\u00e2teau","Code Postal":21130.0,"T\u00e9l\u00e9phone":"03 80 37 34 46","URL":"www.auxonne.fr\/musee-bonaparte","Latitude":47.190963,"Longitude":5.383768,"REF_Deps":"2103801"},{"Identifiant Mus\u00e9ofile":"M0138","R\u00e9gion administrative":"Bourgogne-Franche-Comt\u00e9","D\u00e9partement":"C\u00f4te-d'Or","Commune":"Dijon","Nom officiel du mus\u00e9e":"mus\u00e9e arch\u00e9ologique","Adresse":"5, rue Docteur Maret","Code Postal":21000.0,"T\u00e9l\u00e9phone":"03 80 48 83 70","URL":"archeologie.dijon.fr\/","Latitude":47.321873,"Longitude":5.034107,"REF_Deps":"2123102"},{"Identifiant Mus\u00e9ofile":"M0142","R\u00e9gion administrative":"Bourgogne-Franche-Comt\u00e9","D\u00e9partement":"C\u00f4te-d'Or","Commune":"Montbard","Nom officiel du mus\u00e9e":"mus\u00e9e des beaux-arts","Adresse":"rue Piron","Code Postal":21500.0,"T\u00e9l\u00e9phone":"03 80 92 50 42","URL":null,"Latitude":47.624491,"Longitude":4.336901,"REF_Deps":"2142502"},{"Identifiant Mus\u00e9ofile":"M0144","R\u00e9gion administrative":"Bourgogne-Franche-Comt\u00e9","D\u00e9partement":"C\u00f4te-d'Or","Commune":"Nuits-Saint-Georges","Nom officiel du mus\u00e9e":"mus\u00e9e municipal","Adresse":"12, rue Camille Rodier","Code Postal":21700.0,"T\u00e9l\u00e9phone":"03 80 62 01 37","URL":"www.ot-nuits-st-georges.fr\/accueil\/","Latitude":47.138661,"Longitude":4.950405,"REF_Deps":"2146401"},{"Identifiant Mus\u00e9ofile":"M0145","R\u00e9gion administrative":"Bourgogne-Franche-Comt\u00e9","D\u00e9partement":"C\u00f4te-d'Or","Commune":"Reulle-Vergy","Nom officiel du mus\u00e9e":"mus\u00e9e des arts et traditions des Hautes-C\u00f4tes","Adresse":"Place de la Fontaine","Code Postal":21220.0,"T\u00e9l\u00e9phone":"03 80 61 42 93\/40 95","URL":null,"Latitude":47.187026,"Longitude":4.895293,"REF_Deps":"2125401"},{"Identifiant Mus\u00e9ofile":"M0332","R\u00e9gion administrative":"Bourgogne-Franche-Comt\u00e9","D\u00e9partement":"Doubs","Commune":"Besan\u00e7on","Nom officiel du mus\u00e9e":"mus\u00e9e des beaux-arts et d'arch\u00e9ologie","Adresse":"1 place de la R\u00e9volution - Place du march\u00e9","Code Postal":25000.0,"T\u00e9l\u00e9phone":"03 81 87 80 67","URL":"www.mbaa.besancon.fr\/","Latitude":47.240055,"Longitude":6.022938,"REF_Deps":"2505601"},{"Identifiant Mus\u00e9ofile":"M0338","R\u00e9gion administrative":"Bourgogne-Franche-Comt\u00e9","D\u00e9partement":"Doubs","Commune":"Nancray","Nom officiel du mus\u00e9e":"mus\u00e9e de plein air des maisons comtoises","Adresse":"rue du mus\u00e9e","Code Postal":25360.0,"T\u00e9l\u00e9phone":"03 81 55 29 77","URL":"www.maisons-comtoises.org\/","Latitude":47.242984,"Longitude":6.18963,"REF_Deps":"2541801"},{"Identifiant Mus\u00e9ofile":"M0340","R\u00e9gion administrative":"Bourgogne-Franche-Comt\u00e9","D\u00e9partement":"Doubs","Commune":"Pontarlier","Nom officiel du mus\u00e9e":"mus\u00e9e municipal","Adresse":"2 place d'Ar\u00e7on","Code Postal":25300.0,"T\u00e9l\u00e9phone":"03 81 38 82 16","URL":"www.ville-pontarlier.fr\/page\/activites-et-loisirs\/activites-culture\/musee-municipal\/infos-pratique-2","Latitude":46.904221,"Longitude":6.354581,"REF_Deps":"2546201"},{"Identifiant Mus\u00e9ofile":"M0334","R\u00e9gion administrative":"Bourgogne-Franche-Comt\u00e9","D\u00e9partement":"Doubs","Commune":"Besan\u00e7on","Nom officiel du mus\u00e9e":"mus\u00e9e comtois","Adresse":"2, rue M\u00e9gevand","Code Postal":25000.0,"T\u00e9l\u00e9phone":"03 81 87 83 33","URL":"www.citadelle.com\/fr\/le-musee-comtois.html","Latitude":47.236687,"Longitude":6.022095,"REF_Deps":"2505604"},{"Identifiant Mus\u00e9ofile":"M0335","R\u00e9gion administrative":"Bourgogne-Franche-Comt\u00e9","D\u00e9partement":"Doubs","Commune":"Besan\u00e7on","Nom officiel du mus\u00e9e":"mus\u00e9e de la r\u00e9sistance et de la d\u00e9portation","Adresse":"99 rue des Fusill\u00e9s","Code Postal":25042.0,"T\u00e9l\u00e9phone":"03 81 87 83 12","URL":"www.citadelle.com\/fr\/le-musee-de-la-resistance-et-de-la-deportation.html","Latitude":47.2293384766,"Longitude":6.0352366087,"REF_Deps":"2505605"},{"Identifiant Mus\u00e9ofile":"M0337","R\u00e9gion administrative":"Bourgogne-Franche-Comt\u00e9","D\u00e9partement":"Doubs","Commune":"Montb\u00e9liard","Nom officiel du mus\u00e9e":"mus\u00e9e du ch\u00e2teau","Adresse":"Cour du Ch\u00e2teau","Code Postal":25205.0,"T\u00e9l\u00e9phone":"03 81 99 22 61","URL":"www.montbeliard.fr\/mes-sorties-mes-activites\/musees-de-montbeliard.html","Latitude":47.5095298028,"Longitude":6.8008575564,"REF_Deps":"2538802"},{"Identifiant Mus\u00e9ofile":"M7011","R\u00e9gion administrative":"Bourgogne-Franche-Comt\u00e9","D\u00e9partement":"Doubs","Commune":"Besan\u00e7on","Nom officiel du mus\u00e9e":"mus\u00e9um d'histoire naturelle","Adresse":"2, rue M\u00e9gevand","Code Postal":25000.0,"T\u00e9l\u00e9phone":"03 81 87 83 05","URL":"www.citadelle.com\/fr\/museum-espaces-animaliers.html","Latitude":47.236687,"Longitude":6.022095,"REF_Deps":"2505607"},{"Identifiant Mus\u00e9ofile":"M0339","R\u00e9gion administrative":"Bourgogne-Franche-Comt\u00e9","D\u00e9partement":"Doubs","Commune":"Ornans","Nom officiel du mus\u00e9e":"mus\u00e9e Gustave Courbet","Adresse":"Place Robert Fernier","Code Postal":25290.0,"T\u00e9l\u00e9phone":"03 81 86 22 88","URL":"www.musee-courbet.fr\/","Latitude":47.104874,"Longitude":6.147697,"REF_Deps":"2543401"},{"Identifiant Mus\u00e9ofile":"M0333","R\u00e9gion administrative":"Bourgogne-Franche-Comt\u00e9","D\u00e9partement":"Doubs","Commune":"Besan\u00e7on","Nom officiel du mus\u00e9e":"mus\u00e9e du temps","Adresse":"96 Grande rue","Code Postal":25000.0,"T\u00e9l\u00e9phone":"03 81 87 81 61","URL":"www.mdt.besancon.fr\/","Latitude":47.235978,"Longitude":6.0268,"REF_Deps":"2505602"},{"Identifiant Mus\u00e9ofile":"M0336","R\u00e9gion administrative":"Bourgogne-Franche-Comt\u00e9","D\u00e9partement":"Doubs","Commune":"Montb\u00e9liard","Nom officiel du mus\u00e9e":"mus\u00e9e Beurnier-Rossel","Adresse":"8 place Saint-Martin","Code Postal":25200.0,"T\u00e9l\u00e9phone":"03 81 99 23 90","URL":"www.montbeliard.fr\/mes-sorties-mes-activites\/musees-de-montbeliard.html","Latitude":47.509957,"Longitude":6.797684,"REF_Deps":"2538801"},{"Identifiant Mus\u00e9ofile":"M0357","R\u00e9gion administrative":"Bourgogne-Franche-Comt\u00e9","D\u00e9partement":"Haute-Sa\u00f4ne","Commune":"Gray","Nom officiel du mus\u00e9e":"mus\u00e9e Baron Martin","Adresse":"6 rue Pigalle","Code Postal":70100.0,"T\u00e9l\u00e9phone":"03 84 65 69 10","URL":"www.musee-baronmartin.fr\/","Latitude":47.446411,"Longitude":5.592781,"REF_Deps":"7027901"},{"Identifiant Mus\u00e9ofile":"M0354","R\u00e9gion administrative":"Bourgogne-Franche-Comt\u00e9","D\u00e9partement":"Haute-Sa\u00f4ne","Commune":"Champlitte","Nom officiel du mus\u00e9e":"mus\u00e9e d\u00e9partemental Albert Demard","Adresse":"Ch\u00e2teau de Champlitte","Code Postal":70600.0,"T\u00e9l\u00e9phone":"03 84 95 76 00","URL":"musees.haute-saone.fr\/","Latitude":47.617066,"Longitude":5.517093,"REF_Deps":"7012201"},{"Identifiant Mus\u00e9ofile":"M0356","R\u00e9gion administrative":"Bourgogne-Franche-Comt\u00e9","D\u00e9partement":"Haute-Sa\u00f4ne","Commune":"Fougerolles","Nom officiel du mus\u00e9e":"\u00e9comus\u00e9e du pays de la cerise","Adresse":"206, le Petit Fahys","Code Postal":70220.0,"T\u00e9l\u00e9phone":"03 84 49 52 50","URL":"ecomusee-fougerolles.fr\/","Latitude":47.907317928,"Longitude":6.400821913,"REF_Deps":"7024501"},{"Identifiant Mus\u00e9ofile":"M0355","R\u00e9gion administrative":"Bourgogne-Franche-Comt\u00e9","D\u00e9partement":"Haute-Sa\u00f4ne","Commune":"Ch\u00e2teau-Lambert","Nom officiel du mus\u00e9e":"mus\u00e9e d\u00e9partemental de la montagne Albert Demard","Adresse":"3 place du 19 mars 1962","Code Postal":70440.0,"T\u00e9l\u00e9phone":"03 84 20 43 09","URL":"musees.haute-saone.fr\/chateau-lambert\/","Latitude":47.836247,"Longitude":6.734944,"REF_Deps":"7013901"},{"Identifiant Mus\u00e9ofile":"M0358","R\u00e9gion administrative":"Bourgogne-Franche-Comt\u00e9","D\u00e9partement":"Haute-Sa\u00f4ne","Commune":"Luxeuil-les-Bains","Nom officiel du mus\u00e9e":"mus\u00e9e de la Tour des \u00e9chevins","Adresse":"36, rue Victor-Genoux","Code Postal":70300.0,"T\u00e9l\u00e9phone":"03 84 40 00 07","URL":"www.ville-luxeuil-les-bains.fr\/musees.htm","Latitude":47.816821,"Longitude":6.380482,"REF_Deps":"7031101"},{"Identifiant Mus\u00e9ofile":"M0359","R\u00e9gion administrative":"Bourgogne-Franche-Comt\u00e9","D\u00e9partement":"Haute-Sa\u00f4ne","Commune":"Vesoul","Nom officiel du mus\u00e9e":"mus\u00e9e municipal Georges Garret","Adresse":"1 rue des Ursulines","Code Postal":70000.0,"T\u00e9l\u00e9phone":"03 84 76 51 54","URL":"www.vesoul.fr\/sortir-bouger-se-divertir\/musee-georges-garret.html","Latitude":47.623695,"Longitude":6.155771,"REF_Deps":"7055001"},{"Identifiant Mus\u00e9ofile":"M0348","R\u00e9gion administrative":"Bourgogne-Franche-Comt\u00e9","D\u00e9partement":"Jura","Commune":"Moirans-en-Montagne","Nom officiel du mus\u00e9e":"mus\u00e9e du jouet","Adresse":"5 rue du Murgin","Code Postal":39260.0,"T\u00e9l\u00e9phone":"03 84 42 38 64","URL":"www.musee-du-jouet.com\/","Latitude":46.433004,"Longitude":5.726307,"REF_Deps":"3933301"},{"Identifiant Mus\u00e9ofile":"M0351","R\u00e9gion administrative":"Bourgogne-Franche-Comt\u00e9","D\u00e9partement":"Jura","Commune":"Poligny","Nom officiel du mus\u00e9e":"mus\u00e9e municipal","Adresse":"49 grande rue","Code Postal":39800.0,"T\u00e9l\u00e9phone":"03 84 73 71 71","URL":"www.musee-poligny.fr\/","Latitude":46.836426,"Longitude":5.708802,"REF_Deps":"3943401"},{"Identifiant Mus\u00e9ofile":"M0353","R\u00e9gion administrative":"Bourgogne-Franche-Comt\u00e9","D\u00e9partement":"Jura","Commune":"Salins-les-Bains","Nom officiel du mus\u00e9e":"Mus\u00e9e de la Grande Saline","Adresse":"3 Place des Salines","Code Postal":39110.0,"T\u00e9l\u00e9phone":"03 84 73 10 92","URL":"www.salinesdesalins.com\/","Latitude":46.937242,"Longitude":5.876684,"REF_Deps":"3950001"},{"Identifiant Mus\u00e9ofile":"M0344","R\u00e9gion administrative":"Bourgogne-Franche-Comt\u00e9","D\u00e9partement":"Jura","Commune":"Champagnole","Nom officiel du mus\u00e9e":"mus\u00e9e municipal d'arch\u00e9ologie","Adresse":"26 rue Baronne-Delort","Code Postal":39300.0,"T\u00e9l\u00e9phone":"03 84 53 01 44","URL":"www.champagnole.fr\/item\/musee-archeologique\/","Latitude":46.74651,"Longitude":5.907547,"REF_Deps":"3909701"},{"Identifiant Mus\u00e9ofile":"M0347","R\u00e9gion administrative":"Bourgogne-Franche-Comt\u00e9","D\u00e9partement":"Jura","Commune":"Dole","Nom officiel du mus\u00e9e":"mus\u00e9e des beaux-arts et d'arch\u00e9ologie","Adresse":"85 rue des Ar\u00e8nes","Code Postal":39100.0,"T\u00e9l\u00e9phone":"03 84 79 25 85","URL":"www.doledujura.fr\/musee-des-beaux-arts\/","Latitude":47.089059,"Longitude":5.488205,"REF_Deps":"3919801"},{"Identifiant Mus\u00e9ofile":"M0350","R\u00e9gion administrative":"Bourgogne-Franche-Comt\u00e9","D\u00e9partement":"Jura","Commune":"Morez","Nom officiel du mus\u00e9e":"Vis\u00e9um-mus\u00e9e de la lunette (collections du mus\u00e9e de la lunette et du mus\u00e9e Jourdain)","Adresse":"Place Jean Jaur\u00e8s","Code Postal":39400.0,"T\u00e9l\u00e9phone":"03 84 33 39 30","URL":"www.musee-lunette.fr\/fr","Latitude":46.521,"Longitude":6.022578,"REF_Deps":"3936801"},{"Identifiant Mus\u00e9ofile":"M1169","R\u00e9gion administrative":"Bourgogne-Franche-Comt\u00e9","D\u00e9partement":"Jura","Commune":"Saint-Claude","Nom officiel du mus\u00e9e":"mus\u00e9e de beaux-arts","Adresse":"3 place de l'abbaye","Code Postal":39200.0,"T\u00e9l\u00e9phone":"03 84 38 12 60","URL":"museedelabbaye.fr\/home\/anim.php","Latitude":46.386209,"Longitude":5.865239,"REF_Deps":"3947801"},{"Identifiant Mus\u00e9ofile":"M0341","R\u00e9gion administrative":"Bourgogne-Franche-Comt\u00e9","D\u00e9partement":"Jura","Commune":"Arbois","Nom officiel du mus\u00e9e":"mus\u00e9e Sarret de Grozon","Adresse":"9 Grande rue","Code Postal":39600.0,"T\u00e9l\u00e9phone":"03 84 37 47 90","URL":"www.arbois.fr\/musee-d-art-hotel-sarret-de-grozon.htm","Latitude":46.902604,"Longitude":5.774717,"REF_Deps":"3901301"},{"Identifiant Mus\u00e9ofile":"M0343","R\u00e9gion administrative":"Bourgogne-Franche-Comt\u00e9","D\u00e9partement":"Jura","Commune":"Baume-les-Messieurs","Nom officiel du mus\u00e9e":"mus\u00e9e de l'artisanat jurassien","Adresse":"22 Rue de l'Abbaye","Code Postal":39210.0,"T\u00e9l\u00e9phone":"03 84 87 35 91","URL":null,"Latitude":46.70795,"Longitude":5.648585,"REF_Deps":"3904101"},{"Identifiant Mus\u00e9ofile":"M0345","R\u00e9gion administrative":"Bourgogne-Franche-Comt\u00e9","D\u00e9partement":"Jura","Commune":"Lons-le-Saunier","Nom officiel du mus\u00e9e":"mus\u00e9e des beaux-arts","Adresse":"place Philibert de Chalon","Code Postal":39000.0,"T\u00e9l\u00e9phone":"03 84 47 64 30","URL":"www.lonslesaunier.fr\/les-musees\/musee-des-beaux-arts\/","Latitude":46.675861,"Longitude":5.553907,"REF_Deps":"3930002"},{"Identifiant Mus\u00e9ofile":"M0342","R\u00e9gion administrative":"Bourgogne-Franche-Comt\u00e9","D\u00e9partement":"Jura","Commune":"Arbois","Nom officiel du mus\u00e9e":"mus\u00e9e de la vigne et du vin","Adresse":null,"Code Postal":39600.0,"T\u00e9l\u00e9phone":"03 84 66 40 45","URL":"www.arbois.fr\/musee-de-la-vigne-et-du-vin-du-jura.htm","Latitude":46.902412,"Longitude":5.773686,"REF_Deps":"3901302"},{"Identifiant Mus\u00e9ofile":"M0346","R\u00e9gion administrative":"Bourgogne-Franche-Comt\u00e9","D\u00e9partement":"Jura","Commune":"Lons-le-Saunier","Nom officiel du mus\u00e9e":"mus\u00e9e d'arch\u00e9ologie","Adresse":"133 rue Ren\u00e9 Maire","Code Postal":39000.0,"T\u00e9l\u00e9phone":"03 84 86 11 73","URL":"www.lonslesaunier.fr\/les-musees\/musee-darcheologie\/","Latitude":46.684566,"Longitude":5.579336,"REF_Deps":"3930001"},{"Identifiant Mus\u00e9ofile":"M0149","R\u00e9gion administrative":"Bourgogne-Franche-Comt\u00e9","D\u00e9partement":"Ni\u00e8vre","Commune":"Ch\u00e2teau-Chinon","Nom officiel du mus\u00e9e":"mus\u00e9e du Septennat","Adresse":"6, rue du Ch\u00e2teau","Code Postal":58120.0,"T\u00e9l\u00e9phone":"03 86 85 19 23","URL":"nievre.fr\/cadre-de-vie\/culture-et-patrimoine\/musees\/cite-museale\/","Latitude":47.06721,"Longitude":3.934311,"REF_Deps":"5806201"},{"Identifiant Mus\u00e9ofile":"M0151","R\u00e9gion administrative":"Bourgogne-Franche-Comt\u00e9","D\u00e9partement":"Ni\u00e8vre","Commune":"Cosne-Cours-sur-Loire","Nom officiel du mus\u00e9e":"mus\u00e9e de la Loire","Adresse":"place de La R\u00e9sistance","Code Postal":58200.0,"T\u00e9l\u00e9phone":"03 86 26 71 02","URL":"www.museedelaloire.fr\/","Latitude":47.410548,"Longitude":2.922768,"REF_Deps":"5808601"},{"Identifiant Mus\u00e9ofile":"M0155","R\u00e9gion administrative":"Bourgogne-Franche-Comt\u00e9","D\u00e9partement":"Ni\u00e8vre","Commune":"Nevers","Nom officiel du mus\u00e9e":"mus\u00e9e de la fa\u00efence Fr\u00e9d\u00e9ric Blandin","Adresse":"16, rue St-Genest","Code Postal":58000.0,"T\u00e9l\u00e9phone":"03 86 68 44 60","URL":"culture.nevers.fr\/musee\/","Latitude":46.98629,"Longitude":3.155037,"REF_Deps":"5819402"},{"Identifiant Mus\u00e9ofile":"M0150","R\u00e9gion administrative":"Bourgogne-Franche-Comt\u00e9","D\u00e9partement":"Ni\u00e8vre","Commune":"Clamecy","Nom officiel du mus\u00e9e":"mus\u00e9e d'art et d'histoire Romain Rolland","Adresse":"Avenue de la R\u00e9publique","Code Postal":58500.0,"T\u00e9l\u00e9phone":"03 86 27 17 99","URL":"www.clamecy.fr\/index.php\/Mus%C3%A9e-d-Art-et-d-Histoire-Romain-Rolland?idpage=320&idmetacontenu=","Latitude":47.460604,"Longitude":3.520823,"REF_Deps":"5807901"},{"Identifiant Mus\u00e9ofile":"M0152","R\u00e9gion administrative":"Bourgogne-Franche-Comt\u00e9","D\u00e9partement":"Ni\u00e8vre","Commune":"La Charit\u00e9-sur-Loire","Nom officiel du mus\u00e9e":"mus\u00e9e municipal","Adresse":"8 cour du Ch\u00e2teau","Code Postal":58400.0,"T\u00e9l\u00e9phone":"03 86 57 99 40","URL":null,"Latitude":47.178081,"Longitude":3.016449,"REF_Deps":"5805901"},{"Identifiant Mus\u00e9ofile":"M0158","R\u00e9gion administrative":"Bourgogne-Franche-Comt\u00e9","D\u00e9partement":"Ni\u00e8vre","Commune":"Saint-Amand-en-Puysance","Nom officiel du mus\u00e9e":"mus\u00e9e du gr\u00e8s","Adresse":"Grande rue","Code Postal":58310.0,"T\u00e9l\u00e9phone":"03 86 39 74 97","URL":"nievre.fr\/cadre-de-vie\/culture-et-patrimoine\/musees\/saint-amand-en-puisaye-musee-du-gres\/","Latitude":47.529775,"Longitude":3.07388,"REF_Deps":"5822701"},{"Identifiant Mus\u00e9ofile":"M0157","R\u00e9gion administrative":"Bourgogne-Franche-Comt\u00e9","D\u00e9partement":"Ni\u00e8vre","Commune":"Pouilly-sur-Loire","Nom officiel du mus\u00e9e":"mus\u00e9e Ernest Guedon","Adresse":"17, quai Jules-Pabiot","Code Postal":58150.0,"T\u00e9l\u00e9phone":"03 86 93 54 54","URL":null,"Latitude":47.285947,"Longitude":2.949487,"REF_Deps":"5821501"},{"Identifiant Mus\u00e9ofile":"M0159","R\u00e9gion administrative":"Bourgogne-Franche-Comt\u00e9","D\u00e9partement":"Ni\u00e8vre","Commune":"Varzy","Nom officiel du mus\u00e9e":"mus\u00e9e Auguste Grasset","Adresse":"Place de la Mairie","Code Postal":58210.0,"T\u00e9l\u00e9phone":"03 86 29 72 03","URL":"varzy.fr\/vie-municipale\/musee-municipal-auguste-grasset\/","Latitude":47.357394,"Longitude":3.386114,"REF_Deps":"5830401"},{"Identifiant Mus\u00e9ofile":"M0148","R\u00e9gion administrative":"Bourgogne-Franche-Comt\u00e9","D\u00e9partement":"Ni\u00e8vre","Commune":"Ch\u00e2teau-Chinon","Nom officiel du mus\u00e9e":"mus\u00e9e du costume","Adresse":"6, rue du Ch\u00e2teau","Code Postal":58120.0,"T\u00e9l\u00e9phone":"03 86 85 18 55","URL":"nievre.fr\/cadre-de-vie\/culture-et-patrimoine\/musees\/cite-museale\/","Latitude":47.06721,"Longitude":3.934311,"REF_Deps":"5806202"},{"Identifiant Mus\u00e9ofile":"M0153","R\u00e9gion administrative":"Bourgogne-Franche-Comt\u00e9","D\u00e9partement":"Ni\u00e8vre","Commune":"La Machine","Nom officiel du mus\u00e9e":"mus\u00e9e de la mine","Adresse":"1 avenue de La R\u00e9publique","Code Postal":58260.0,"T\u00e9l\u00e9phone":"03 86 50 91 08","URL":"nievre.fr\/cadre-de-vie\/culture-et-patrimoine\/musees\/la-machine-musee-de-la-mine\/","Latitude":46.889225,"Longitude":3.463514,"REF_Deps":"5815101"},{"Identifiant Mus\u00e9ofile":"M0156","R\u00e9gion administrative":"Bourgogne-Franche-Comt\u00e9","D\u00e9partement":"Ni\u00e8vre","Commune":"Nevers","Nom officiel du mus\u00e9e":"mus\u00e9e arch\u00e9ologique de la porte du Croux","Adresse":"Rue de la Porte-du-Croux","Code Postal":58000.0,"T\u00e9l\u00e9phone":"03 86 59 17 85","URL":"www.nevers.fr\/vivre-a-nevers\/culture\/les-musees\/le-musee-archeologique-du-nivernais-porte-du-croux","Latitude":46.986949,"Longitude":3.154223,"REF_Deps":"5819403"},{"Identifiant Mus\u00e9ofile":"M0163","R\u00e9gion administrative":"Bourgogne-Franche-Comt\u00e9","D\u00e9partement":"Sa\u00f4ne-et-Loire","Commune":"Blanzy","Nom officiel du mus\u00e9e":"mus\u00e9e de la mine et des hommes","Adresse":"34, rue du Bois-Clair","Code Postal":71450.0,"T\u00e9l\u00e9phone":"03 85 68 22 85","URL":"www.musee-mine-blanzy.fr\/","Latitude":46.701488,"Longitude":4.382962,"REF_Deps":"7104001"},{"Identifiant Mus\u00e9ofile":"M0175","R\u00e9gion administrative":"Bourgogne-Franche-Comt\u00e9","D\u00e9partement":"Sa\u00f4ne-et-Loire","Commune":"Paray-le-Monial","Nom officiel du mus\u00e9e":"mus\u00e9e municipal","Adresse":null,"Code Postal":71600.0,"T\u00e9l\u00e9phone":null,"URL":null,"Latitude":46.450396,"Longitude":4.119117,"REF_Deps":null},{"Identifiant Mus\u00e9ofile":"M0179","R\u00e9gion administrative":"Bourgogne-Franche-Comt\u00e9","D\u00e9partement":"Sa\u00f4ne-et-Loire","Commune":"Romenay","Nom officiel du mus\u00e9e":"mus\u00e9e du terroir","Adresse":"Place de l'Eglise","Code Postal":71470.0,"T\u00e9l\u00e9phone":"03 85 76 27 16","URL":"www.ecomusee-bresse71.fr\/","Latitude":46.503251,"Longitude":5.067591,"REF_Deps":"7137301"},{"Identifiant Mus\u00e9ofile":"M7019","R\u00e9gion administrative":"Bourgogne-Franche-Comt\u00e9","D\u00e9partement":"Sa\u00f4ne-et-Loire","Commune":"Autun","Nom officiel du mus\u00e9e":"mus\u00e9um d'histoire naturelle","Adresse":"12-14, rue Saint-Antoine","Code Postal":71400.0,"T\u00e9l\u00e9phone":"03 85 52 09 15","URL":"www.autun.com\/sortir-a-autun\/les-lieux-de-loisirs\/le-museum-dhistoire-naturelle","Latitude":46.947996,"Longitude":4.301812,"REF_Deps":"7101404"},{"Identifiant Mus\u00e9ofile":"M0166","R\u00e9gion administrative":"Bourgogne-Franche-Comt\u00e9","D\u00e9partement":"Sa\u00f4ne-et-Loire","Commune":"Chalon-sur-Sa\u00f4ne","Nom officiel du mus\u00e9e":"mus\u00e9e Nic\u00e9phore Niepce","Adresse":"28, quai des Messageries","Code Postal":71100.0,"T\u00e9l\u00e9phone":"03 85 48 41 98","URL":"www.museeniepce.com\/","Latitude":46.780045,"Longitude":4.855727,"REF_Deps":"7107602"},{"Identifiant Mus\u00e9ofile":"M0168","R\u00e9gion administrative":"Bourgogne-Franche-Comt\u00e9","D\u00e9partement":"Sa\u00f4ne-et-Loire","Commune":"Charolles","Nom officiel du mus\u00e9e":"mus\u00e9e du Prieur\u00e9 Jean Laronze","Adresse":"4 rue du Prieur\u00e9","Code Postal":71120.0,"T\u00e9l\u00e9phone":"385242474","URL":"www.ville-charolles.fr\/musees","Latitude":46.432412,"Longitude":4.279872,"REF_Deps":"7110602"},{"Identifiant Mus\u00e9ofile":"M0173","R\u00e9gion administrative":"Bourgogne-Franche-Comt\u00e9","D\u00e9partement":"Sa\u00f4ne-et-Loire","Commune":"M\u00e2con","Nom officiel du mus\u00e9e":"mus\u00e9e Lamartine","Adresse":"5, rue de la Pr\u00e9fecture","Code Postal":71000.0,"T\u00e9l\u00e9phone":"03 85 39 90 38","URL":"www.macon.fr\/vivre-et-bouger-a-macon\/culture\/musee-des-ursulines","Latitude":46.307508,"Longitude":4.833156,"REF_Deps":"7127001"},{"Identifiant Mus\u00e9ofile":"M0180","R\u00e9gion administrative":"Bourgogne-Franche-Comt\u00e9","D\u00e9partement":"Sa\u00f4ne-et-Loire","Commune":"Solutr\u00e9-Pouilly","Nom officiel du mus\u00e9e":"mus\u00e9e d\u00e9partemental de pr\u00e9histoire","Adresse":"Chemin de la Roche","Code Postal":71960.0,"T\u00e9l\u00e9phone":"03 85 35 85 24","URL":"rochedesolutre.com\/musee-de-prehistoire\/","Latitude":46.295079,"Longitude":4.732247,"REF_Deps":"7152601"},{"Identifiant Mus\u00e9ofile":"M0183","R\u00e9gion administrative":"Bourgogne-Franche-Comt\u00e9","D\u00e9partement":"Sa\u00f4ne-et-Loire","Commune":"Verdun-sur-le-Doubs","Nom officiel du mus\u00e9e":"maison du bl\u00e9 et du pain","Adresse":"rue du Pont","Code Postal":71350.0,"T\u00e9l\u00e9phone":"03 85 91 57 09","URL":"www.ecomusee-bresse71.fr\/","Latitude":46.897337,"Longitude":5.024918,"REF_Deps":"7156601"},{"Identifiant Mus\u00e9ofile":"M0181","R\u00e9gion administrative":"Bourgogne-Franche-Comt\u00e9","D\u00e9partement":"Sa\u00f4ne-et-Loire","Commune":"Tournus","Nom officiel du mus\u00e9e":"mus\u00e9e Greuze - h\u00f4tel-Dieu","Adresse":"21 rue de l'H\u00f4pital","Code Postal":71700.0,"T\u00e9l\u00e9phone":"03 85 51 23 50","URL":"musee-greuze.fr\/","Latitude":46.562137,"Longitude":4.910839,"REF_Deps":"7154301"},{"Identifiant Mus\u00e9ofile":"M0161","R\u00e9gion administrative":"Bourgogne-Franche-Comt\u00e9","D\u00e9partement":"Sa\u00f4ne-et-Loire","Commune":"Autun","Nom officiel du mus\u00e9e":"mus\u00e9e Rolin","Adresse":"3, rue des Bancs","Code Postal":71400.0,"T\u00e9l\u00e9phone":"03 85 52 09 76","URL":"www.museerolin.fr\/node\/132","Latitude":46.945723,"Longitude":4.299216,"REF_Deps":"7101402"},{"Identifiant Mus\u00e9ofile":"M0165","R\u00e9gion administrative":"Bourgogne-Franche-Comt\u00e9","D\u00e9partement":"Sa\u00f4ne-et-Loire","Commune":"Chalon-sur-Sa\u00f4ne","Nom officiel du mus\u00e9e":"mus\u00e9e Vivant Denon","Adresse":"Place de l'H\u00f4tel de Ville","Code Postal":71100.0,"T\u00e9l\u00e9phone":"03 85 94 74 41\/48 29 52","URL":"www.museedenon.com\/","Latitude":46.78105,"Longitude":4.853082,"REF_Deps":"7107601"},{"Identifiant Mus\u00e9ofile":"M0167","R\u00e9gion administrative":"Bourgogne-Franche-Comt\u00e9","D\u00e9partement":"Sa\u00f4ne-et-Loire","Commune":"Charolles","Nom officiel du mus\u00e9e":"mus\u00e9e Ren\u00e9 Davoine","Adresse":"32, rue Ren\u00e9 Davoine","Code Postal":71120.0,"T\u00e9l\u00e9phone":"385242474","URL":"www.ville-charolles.fr\/musee-du-prieure-jean-laronze","Latitude":46.431434,"Longitude":4.273059,"REF_Deps":"7110601"},{"Identifiant Mus\u00e9ofile":"M0170","R\u00e9gion administrative":"Bourgogne-Franche-Comt\u00e9","D\u00e9partement":"Sa\u00f4ne-et-Loire","Commune":"Le Creusot - Montceau-les-Mines","Nom officiel du mus\u00e9e":"\u00e9comus\u00e9e de la communaut\u00e9 Le Creusot - Montceau-les-Mines","Adresse":"BP 53","Code Postal":71200.0,"T\u00e9l\u00e9phone":"03 85 73 92 00","URL":"www.ecomusee-creusot-montceau.fr\/spip.php?rubrique51","Latitude":46.80448,"Longitude":4.428059,"REF_Deps":"7115301"},{"Identifiant Mus\u00e9ofile":"M0171","R\u00e9gion administrative":"Bourgogne-Franche-Comt\u00e9","D\u00e9partement":"Sa\u00f4ne-et-Loire","Commune":"Louhans","Nom officiel du mus\u00e9e":"mus\u00e9e municipal","Adresse":"29 rue des Dod\u00e2nes","Code Postal":71270.0,"T\u00e9l\u00e9phone":"03 85 76 03 41","URL":"www.louhans-chateaurenaud.fr\/culture-et-patrimoine\/monuments-et-musees\/155-le-musee-municipal","Latitude":46.87264,"Longitude":5.275048,"REF_Deps":"7126301"},{"Identifiant Mus\u00e9ofile":"M0177","R\u00e9gion administrative":"Bourgogne-Franche-Comt\u00e9","D\u00e9partement":"Sa\u00f4ne-et-Loire","Commune":"Pierre-de-Bresse","Nom officiel du mus\u00e9e":"\u00e9comus\u00e9e de la Bresse bourguignonne","Adresse":"BP 12","Code Postal":71270.0,"T\u00e9l\u00e9phone":"03 85 76 27 16","URL":"www.ecomusee-bresse71.fr\/","Latitude":46.88298,"Longitude":5.261603,"REF_Deps":"7135101"},{"Identifiant Mus\u00e9ofile":"M1199","R\u00e9gion administrative":"Bourgogne-Franche-Comt\u00e9","D\u00e9partement":"Sa\u00f4ne-et-Loire","Commune":"Saint-L\u00e9ger-sous-Beuvray","Nom officiel du mus\u00e9e":"mus\u00e9e de Bibracte","Adresse":"Col du Rebout","Code Postal":71990.0,"T\u00e9l\u00e9phone":"03 85 86 52 35","URL":"www.bibracte.fr\/","Latitude":46.934539,"Longitude":4.062979,"REF_Deps":"7144001"},{"Identifiant Mus\u00e9ofile":"M0160","R\u00e9gion administrative":"Bourgogne-Franche-Comt\u00e9","D\u00e9partement":"Sa\u00f4ne-et-Loire","Commune":"Autun","Nom officiel du mus\u00e9e":"mus\u00e9e lapidaire Saint-Nicolas","Adresse":"10, rue Saint-Nicolas","Code Postal":71400.0,"T\u00e9l\u00e9phone":"03 85 54 21 60","URL":"www.museerolin.fr\/node\/132","Latitude":46.955328,"Longitude":4.300179,"REF_Deps":"7101403"},{"Identifiant Mus\u00e9ofile":"M0162","R\u00e9gion administrative":"Bourgogne-Franche-Comt\u00e9","D\u00e9partement":"Sa\u00f4ne-et-Loire","Commune":"Autun","Nom officiel du mus\u00e9e":"mus\u00e9e Verger-Tarin","Adresse":"7, rue des Sous-Chambres","Code Postal":71400.0,"T\u00e9l\u00e9phone":"03 85 52 04 84","URL":null,"Latitude":46.949043,"Longitude":4.302971,"REF_Deps":"7101401"},{"Identifiant Mus\u00e9ofile":"M0164","R\u00e9gion administrative":"Bourgogne-Franche-Comt\u00e9","D\u00e9partement":"Sa\u00f4ne-et-Loire","Commune":"Bourbon-Lancy","Nom officiel du mus\u00e9e":"mus\u00e9e Saint-Nazaire","Adresse":"place du Mus\u00e9e","Code Postal":71140.0,"T\u00e9l\u00e9phone":"03 85 89 09 40","URL":"www.tourisme-bourbonlancy.com\/-fr\/musee-saint-nazaire-33","Latitude":46.624065,"Longitude":3.768545,"REF_Deps":"7104701"},{"Identifiant Mus\u00e9ofile":"M0169","R\u00e9gion administrative":"Bourgogne-Franche-Comt\u00e9","D\u00e9partement":"Sa\u00f4ne-et-Loire","Commune":"Cluny","Nom officiel du mus\u00e9e":"mus\u00e9e d'art et d'arch\u00e9ologie","Adresse":null,"Code Postal":71250.0,"T\u00e9l\u00e9phone":"03 85 59 12 79","URL":"www.cluny.fr\/musee-d-art-et-d-archeologie","Latitude":46.433938,"Longitude":4.658048,"REF_Deps":"7113701"},{"Identifiant Mus\u00e9ofile":"M0172","R\u00e9gion administrative":"Bourgogne-Franche-Comt\u00e9","D\u00e9partement":"Sa\u00f4ne-et-Loire","Commune":"M\u00e2con","Nom officiel du mus\u00e9e":"mus\u00e9e des ursulines","Adresse":"5, rue de la Pr\u00e9fecture","Code Postal":71000.0,"T\u00e9l\u00e9phone":"03 85 39 90 38","URL":"www.macon.fr\/vivre-et-bouger-a-macon\/culture\/musee-des-ursulines","Latitude":46.307508,"Longitude":4.833156,"REF_Deps":"7127001"},{"Identifiant Mus\u00e9ofile":"M0174","R\u00e9gion administrative":"Bourgogne-Franche-Comt\u00e9","D\u00e9partement":"Sa\u00f4ne-et-Loire","Commune":"Marcigny","Nom officiel du mus\u00e9e":"mus\u00e9e de la tour du moulin","Adresse":"Rue de la Tour du Moulin","Code Postal":71110.0,"T\u00e9l\u00e9phone":"03 85 25 37 05","URL":"www.marcigny.fr\/musee-de-la-tour-du-moulin","Latitude":46.274562,"Longitude":4.044451,"REF_Deps":"7127501"},{"Identifiant Mus\u00e9ofile":"M0176","R\u00e9gion administrative":"Bourgogne-Franche-Comt\u00e9","D\u00e9partement":"Sa\u00f4ne-et-Loire","Commune":"Paray-le-Monial","Nom officiel du mus\u00e9e":"mus\u00e9e eucharistique du Hi\u00e9ron","Adresse":"13 rue de la Paix","Code Postal":71600.0,"T\u00e9l\u00e9phone":"03 85 81 79 72","URL":"www.musee-hieron.fr\/","Latitude":46.451822,"Longitude":4.123021,"REF_Deps":"7134201"},{"Identifiant Mus\u00e9ofile":"M0178","R\u00e9gion administrative":"Bourgogne-Franche-Comt\u00e9","D\u00e9partement":"Sa\u00f4ne-et-Loire","Commune":"Roman\u00e8che-Thorins","Nom officiel du mus\u00e9e":"mus\u00e9e Guillon du compagnonnage","Adresse":"98 rue Pierre-Fran\u00e7ois Guillon","Code Postal":71570.0,"T\u00e9l\u00e9phone":"03 85 35 22 02","URL":"www.musee-compagnonnage71.fr\/","Latitude":46.187946,"Longitude":4.73427,"REF_Deps":"7127201"},{"Identifiant Mus\u00e9ofile":"M0182","R\u00e9gion administrative":"Bourgogne-Franche-Comt\u00e9","D\u00e9partement":"Sa\u00f4ne-et-Loire","Commune":"Tournus","Nom officiel du mus\u00e9e":"mus\u00e9e bourguignon Perrin de Puycousin","Adresse":"H\u00f4tel-Dieu - mus\u00e9e Greuze, 21, rue de l'H\u00f4pital","Code Postal":71700.0,"T\u00e9l\u00e9phone":"03 85 51 29 68","URL":null,"Latitude":46.562137,"Longitude":4.910839,"REF_Deps":"7154302"},{"Identifiant Mus\u00e9ofile":"M0360","R\u00e9gion administrative":"Bourgogne-Franche-Comt\u00e9","D\u00e9partement":"Territoire-de-Belfort","Commune":"Beaucourt","Nom officiel du mus\u00e9e":"mus\u00e9e Fr\u00e9d\u00e9ric Japy","Adresse":"16 rue Fr\u00e9d\u00e9ric Japy","Code Postal":90500.0,"T\u00e9l\u00e9phone":"03 84 56 57 52","URL":"www.mairie-beaucourt.fr\/culture\/","Latitude":47.485011,"Longitude":6.922453,"REF_Deps":"9000901"},{"Identifiant Mus\u00e9ofile":"M0362","R\u00e9gion administrative":"Bourgogne-Franche-Comt\u00e9","D\u00e9partement":"Territoire-de-Belfort","Commune":"Etueffont","Nom officiel du mus\u00e9e":"forge-mus\u00e9e","Adresse":"2 rue de Lamadeleine","Code Postal":90170.0,"T\u00e9l\u00e9phone":"03 84 54 60 41","URL":"www.etueffont.fr\/decouvrir\/patrimoine-historique.htm","Latitude":47.722575,"Longitude":6.920842,"REF_Deps":"9004101"},{"Identifiant Mus\u00e9ofile":"M0361","R\u00e9gion administrative":"Bourgogne-Franche-Comt\u00e9","D\u00e9partement":"Territoire-de-Belfort","Commune":"Belfort","Nom officiel du mus\u00e9e":"mus\u00e9e d'art et d'histoire","Adresse":"Rue Xavier Bauer","Code Postal":90000.0,"T\u00e9l\u00e9phone":"03 84 54 25 51","URL":"musees.belfort.fr\/musee-s-961.html","Latitude":47.63757,"Longitude":6.867072,"REF_Deps":"9001001"},{"Identifiant Mus\u00e9ofile":"M1075","R\u00e9gion administrative":"Bourgogne-Franche-Comt\u00e9","D\u00e9partement":"Territoire-de-Belfort","Commune":"Belfort","Nom officiel du mus\u00e9e":"Cabinet d'un amateur - donation Maurice Jardot","Adresse":"8 rue de Mulhouse","Code Postal":90000.0,"T\u00e9l\u00e9phone":"03 84 54 25 51","URL":"musees.belfort.fr","Latitude":47.642439,"Longitude":6.855466,"REF_Deps":"9001002"},{"Identifiant Mus\u00e9ofile":"M0190","R\u00e9gion administrative":"Bourgogne-Franche-Comt\u00e9","D\u00e9partement":"Yonne","Commune":"Tonnerre","Nom officiel du mus\u00e9e":"mus\u00e9e municipal","Adresse":"Rue du Prieur\u00e9","Code Postal":89700.0,"T\u00e9l\u00e9phone":"03 86 55 15 54\/54 33 00","URL":"www.tonnerre-patrimoine.com\/?s=mus%C3%A9e","Latitude":47.8559,"Longitude":3.97555,"REF_Deps":"8941801"},{"Identifiant Mus\u00e9ofile":"M1189","R\u00e9gion administrative":"Bourgogne-Franche-Comt\u00e9","D\u00e9partement":"Yonne","Commune":"Saint-Fargeau","Nom officiel du mus\u00e9e":"mus\u00e9e de l'aventure du son","Adresse":null,"Code Postal":89170.0,"T\u00e9l\u00e9phone":null,"URL":"www.aventureduson.fr\/","Latitude":47.640663,"Longitude":3.070586,"REF_Deps":"8934401"},{"Identifiant Mus\u00e9ofile":"M7020","R\u00e9gion administrative":"Bourgogne-Franche-Comt\u00e9","D\u00e9partement":"Yonne","Commune":"Auxerre","Nom officiel du mus\u00e9e":"mus\u00e9e d'histoire naturelle","Adresse":"5, boulevard Vauban","Code Postal":89000.0,"T\u00e9l\u00e9phone":"03 86 72 96 40","URL":"www.auxerre.fr\/Attractive\/Les-grands-equipements\/Les-equipements-culturels\/Museum","Latitude":47.796936,"Longitude":3.564362,"REF_Deps":"8902401"},{"Identifiant Mus\u00e9ofile":"M0191","R\u00e9gion administrative":"Bourgogne-Franche-Comt\u00e9","D\u00e9partement":"Yonne","Commune":"V\u00e9zelay","Nom officiel du mus\u00e9e":"mus\u00e9e Zervos","Adresse":"Rue Saint-\u00c9tienne","Code Postal":89450.0,"T\u00e9l\u00e9phone":"03 86 32 39 26","URL":"www.yonne.fr\/Culture-et-Vie-Locale\/Sites-et-monuments\/Musee-Zervos","Latitude":47.464133,"Longitude":3.74361,"REF_Deps":"8944601"},{"Identifiant Mus\u00e9ofile":"M0184","R\u00e9gion administrative":"Bourgogne-Franche-Comt\u00e9","D\u00e9partement":"Yonne","Commune":"Auxerre","Nom officiel du mus\u00e9e":"mus\u00e9e d'art et d'histoire Saint-Germain","Adresse":"2 bis, place Saint-Germain","Code Postal":89000.0,"T\u00e9l\u00e9phone":"03 86 18 05 50","URL":"www.auxerre.fr\/Attractive\/Les-grands-equipements\/Les-equipements-culturels\/Musees","Latitude":47.800283,"Longitude":3.571975,"REF_Deps":"8902402"},